$GPGSV,3,1,10,01,45,153,40,03,73,054,32,04,62,205,36,06,17,313,37,1*64
$GPGSV,3,2,10,31,27,057,35,09,26,222,,17,33,255,,19,30,292,,1*6E
$GPGSV,3,3,10,21,24,151,,22,15,047,,1*62
$GLGSV,2,1,07,65,30,254,29,88,37,319,29,87,66,239,30,71,37,047,28,1*7F
$GLGSV,2,2,07,72,73,320,24,74,03,115,,73,17,074,,1*4D
$GBGSV,4,1,14,09,42,059,27,06,28,046,27,05,22,127,29,02,06,106,,1*72
$GBGSV,4,2,14,16,21,040,,19,13,255,,20,62,268,,23,18,085,,1*72
$GBGSV,4,3,14,25,11,037,,29,47,265,,30,28,195,,32,55,061,,1*7C
$GBGSV,4,4,14,35,18,317,,37,07,133,,1*7B
$GNGSA,A,3,01,03,04,06,31,,,,,,,,1.3,0.9,0.8,1*30
$GNGSA,A,3,65,71,72,87,88,,,,,,,,1.3,0.9,0.8,2*3E
$GNGSA,A,3,05,,,,,,,,,,,,1.3,0.9,0.8,4*32
$GNVTG,,T,,M,0.0,N,0.0,K,A*3D
$GNRMC,074448.44,A,4806.984571,N,01636.732781,E,0.0,,051122,1.8,E,A,V*7E
$GNGGA,074448.44,4806.984571,N,01636.732781,E,1,11,0.9,158.7,M,43.0,M,,*7A
$GNGSA,A,3,01,03,04,06,31,,,,,,,,1.3,0.9,0.8,1*30
$GNGSA,A,3,65,71,72,87,88,,,,,,,,1.3,0.9,0.8,2*3E
$GNGSA,A,3,05,,,,,,,,,,,,1.3,0.9,0.8,4*32
$GNVTG,,T,,M,0.0,N,0.0,K,A*3D
$GNRMC,074449.00,A,4806.984571,N,01636.732781,E,0.0,,051122,1.8,E,A,V*7F
$GNGGA,074449.00,4806.984571,N,01636.732781,E,1,11,0.9,158.7,M,43.0,M,,*7B
$GPGSV,3,1,10,01,45,153,40,03,73,054,32,04,62,205,36,06,17,313,37,1*64
$GPGSV,3,2,10,31,27,057,35,09,26,222,,17,33,255,,19,30,292,,1*6E
$GPGSV,3,3,10,21,24,151,,22,15,047,,1*62
$GLGSV,2,1,07,74,03,115,23,73,17,074,27,65,30,254,31,88,37,319,27,1*77
$GLGSV,2,2,07,87,66,239,31,71,37,047,26,72,73,320,27,1*4A
$GBGSV,4,1,14,37,07,133,26,35,18,317,25,32,55,061,27,30,28,195,26,1*7E
$GBGSV,4,2,14,29,47,265,30,23,18,085,38,20,62,268,34,19,13,255,30,1*77
$GBGSV,4,3,14,09,42,059,27,06,28,046,27,05,22,127,27,02,06,106,,1*7E
$GBGSV,4,4,14,16,21,040,,25,11,037,,1*70
$GNGSA,A,3,01,03,04,06,31,,,,,,,,1.3,0.9,0.8,1*30
$GNGSA,A,3,65,71,72,87,88,,,,,,,,1.3,0.9,0.8,2*3E
$GNGSA,A,3,05,,,,,,,,,,,,1.3,0.9,0.8,4*32
$GNVTG,,T,,M,0.0,N,0.0,K,A*3D
$GNRMC,074450.00,A,4806.985343,N,01636.734088,E,0.0,,051122,1.8,E,A,V*79
$GNGGA,074450.00,4806.985343,N,01636.734088,E,1,11,0.9,161.7,M,43.0,M,,*77
$GPGSV,3,1,10,01,45,153,40,03,73,054,32,04,62,205,36,06,17,313,37,1*64
$GPGSV,3,2,10,31,27,057,35,09,26,222,,17,33,255,,19,30,292,,1*6E
$GPGSV,3,3,10,21,24,151,,22,15,047,,1*62
$GLGSV,2,1,07,74,03,115,23,73,17,074,30,65,30,254,28,88,37,319,28,1*76
$GLGSV,2,2,07,87,66,239,30,71,37,047,24,72,73,320,29,1*47
$GBGSV,4,1,14,37,07,133,24,35,18,317,26,32,55,061,26,30,28,195,27,1*7F
$GBGSV,4,2,14,29,47,265,31,23,18,085,35,20,62,268,36,19,13,255,29,1*71
$GBGSV,4,3,14,16,21,040,22,09,42,059,21,06,28,046,27,05,22,127,26,1*7A
$GBGSV,4,4,14,02,06,106,,25,11,037,,1*73
$GNGSA,A,3,01,03,04,06,31,,,,,,,,1.3,0.9,0.8,1*30
$GNGSA,A,3,65,71,72,87,88,,,,,,,,1.3,0.9,0.8,2*3E
$GNGSA,A,3,05,,,,,,,,,,,,1.3,0.9,0.8,4*32
$GNVTG,,T,,M,0.0,N,0.0,K,A*3D
$GNRMC,074451.00,A,4806.983873,N,01636.733003,E,0.0,,051122,1.8,E,A,V*72
$GNGGA,074451.00,4806.983873,N,01636.733003,E,1,11,0.9,155.8,M,43.0,M,,*74
$GPGSV,3,1,10,01,45,153,40,03,73,054,33,04,62,205,36,06,17,313,27,1*64
$GPGSV,3,2,10,09,26,222,28,17,33,255,36,19,30,292,25,21,24,151,36,1*60
$GPGSV,3,3,10,22,15,047,27,31,27,057,28,1*68
$GLGSV,2,1,07,74,03,115,23,73,17,074,34,65,30,254,31,88,37,319,30,1*73
$GLGSV,2,2,07,87,66,239,30,71,37,047,24,72,73,320,29,1*47
$GBGSV,4,1,14,37,07,133,24,35,18,317,28,32,55,061,26,30,28,195,29,1*7F
$GBGSV,4,2,14,29,47,265,31,23,18,085,32,20,62,268,35,19,13,255,31,1*7C
$GBGSV,4,3,14,16,21,040,22,09,42,059,21,06,28,046,27,05,22,127,26,1*7A
$GBGSV,4,4,14,02,06,106,,25,11,037,,1*73
$GNGSA,A,3,01,03,04,06,09,19,21,22,31,,,,1.1,0.7,0.8,1*3E
$GNGSA,A,3,65,71,72,87,88,,,,,,,,1.1,0.7,0.8,2*32
$GNGSA,A,3,05,,,,,,,,,,,,1.1,0.7,0.8,4*3E
$GNVTG,,T,,M,0.0,N,0.0,K,A*3D
$GNRMC,074452.00,A,4806.983287,N,01636.733796,E,0.0,,051122,1.8,E,A,V*7B
$GNGGA,074452.00,4806.983287,N,01636.733796,E,1,12,0.7,155.2,M,43.0,M,,*7A
$GPGSV,3,1,10,01,45,153,41,03,73,054,28,04,62,205,38,06,17,313,29,1*6F
$GPGSV,3,2,10,09,26,222,24,17,33,255,35,19,30,292,23,21,24,151,29,1*67
$GPGSV,3,3,10,22,15,047,25,31,27,057,29,1*6B
$GLGSV,2,1,07,74,03,115,23,73,17,074,26,65,30,254,31,88,37,319,29,1*78
$GLGSV,2,2,07,87,66,239,28,71,37,047,24,72,73,320,28,1*4F
$GBGSV,4,1,14,37,07,133,24,35,18,317,30,32,55,061,26,30,28,195,29,1*76
$GBGSV,4,2,14,29,47,265,31,23,18,085,30,20,62,268,29,19,13,255,26,1*75
$GBGSV,4,3,14,16,21,040,22,09,42,059,21,06,28,046,27,05,22,127,26,1*7A
$GBGSV,4,4,14,02,06,106,,25,11,037,,1*73
$GNGSA,A,3,01,03,04,06,09,19,21,22,31,,,,1.1,0.7,0.8,1*3E
$GNGSA,A,3,65,71,72,87,88,,,,,,,,1.1,0.7,0.8,2*32
$GNGSA,A,3,05,,,,,,,,,,,,1.1,0.7,0.8,4*3E
$GNVTG,,T,,M,0.0,N,0.0,K,A*3D
$GNRMC,074453.00,A,4806.982730,N,01636.734653,E,0.0,,051122,1.8,E,A,V*7D
$GNGGA,074453.00,4806.982730,N,01636.734653,E,1,12,0.7,156.2,M,43.0,M,,*7F
$GPGSV,3,1,10,01,45,153,37,03,73,054,29,04,62,205,35,06,17,313,31,1*6B
$GPGSV,3,2,10,09,26,222,25,17,33,255,35,19,30,292,23,21,24,151,27,1*68
$GPGSV,3,3,10,22,15,047,23,31,27,057,24,1*60
$GLGSV,2,1,07,74,03,115,23,73,17,074,30,65,30,254,30,88,37,319,29,1*7E
$GLGSV,2,2,07,87,66,239,34,71,37,047,24,72,73,320,26,1*4C
$GBGSV,4,1,14,37,07,133,24,35,18,317,31,32,55,061,26,30,28,195,31,1*7E
$GBGSV,4,2,14,29,47,265,29,23,18,085,29,20,62,268,26,19,13,255,25,1*78
$GBGSV,4,3,14,16,21,040,28,09,42,059,21,06,28,046,27,05,22,127,26,1*70
$GBGSV,4,4,14,02,06,106,,25,11,037,,1*73
$GNGSA,A,3,01,03,04,06,09,19,21,22,31,,,,1.1,0.7,0.8,1*3E
$GNGSA,A,3,65,71,72,87,88,,,,,,,,1.1,0.7,0.8,2*32
$GNGSA,A,3,05,,,,,,,,,,,,1.1,0.7,0.8,4*3E
$GNVTG,146.3,T,146.3,M,2.5,N,4.7,K,A*39
$GNRMC,074454.00,A,4806.982183,N,01636.736174,E,2.5,146.3,051122,1.8,E,A,V*5D
$GNGGA,074454.00,4806.982183,N,01636.736174,E,1,12,0.7,157.2,M,43.0,M,,*77
$GPGSV,3,1,10,01,45,153,43,03,73,054,30,04,62,205,33,06,17,313,36,1*61
$GPGSV,3,2,10,09,26,222,29,17,33,255,36,19,30,292,24,21,24,151,25,1*62
$GPGSV,3,3,10,22,15,047,24,31,27,057,27,1*64
$GLGSV,2,1,07,74,03,115,23,73,17,074,34,65,30,254,30,88,37,319,29,1*7A
$GLGSV,2,2,07,87,66,239,33,71,37,047,23,72,73,320,28,1*42
$GBGSV,4,1,14,37,07,133,24,35,18,317,31,32,55,061,26,30,28,195,38,1*77
$GBGSV,4,2,14,29,47,265,29,23,18,085,30,20,62,268,30,19,13,255,23,1*71
$GBGSV,4,3,14,16,21,040,26,09,42,059,21,06,28,046,27,05,22,127,29,1*71
$GBGSV,4,4,14,02,06,106,,25,11,037,,1*73
$GNGSA,A,3,01,03,04,06,09,19,21,22,31,,,,1.1,0.7,0.8,1*3E
$GNGSA,A,3,65,71,72,87,88,,,,,,,,1.1,0.7,0.8,2*32
$GNGSA,A,3,05,,,,,,,,,,,,1.1,0.7,0.8,4*3E
$GNVTG,168.4,T,168.4,M,2.9,N,5.4,K,A*37
$GNRMC,074455.00,A,4806.982595,N,01636.737266,E,2.9,168.4,051122,1.8,E,A,V*59
$GNGGA,074455.00,4806.982595,N,01636.737266,E,1,12,0.7,160.4,M,43.0,M,,*76
$GPGSV,3,1,10,01,45,153,40,03,73,054,29,04,62,205,33,06,17,313,38,1*64
$GPGSV,3,2,10,09,26,222,29,17,33,255,34,19,30,292,23,21,24,151,25,1*67
$GPGSV,3,3,10,22,15,047,25,31,27,057,25,1*67
$GLGSV,2,1,07,74,03,115,23,73,17,074,39,65,30,254,30,88,37,319,31,1*7E
$GLGSV,2,2,07,87,66,239,34,71,37,047,23,72,73,320,27,1*4A
$GBGSV,4,1,14,37,07,133,24,35,18,317,29,32,55,061,26,30,28,195,38,1*7E
$GBGSV,4,2,14,29,47,265,30,23,18,085,26,20,62,268,33,19,13,255,24,1*7A
$GBGSV,4,3,14,16,21,040,26,09,42,059,21,06,28,046,27,05,22,127,29,1*71
$GBGSV,4,4,14,02,06,106,,25,11,037,,1*73
$GNGSA,A,3,01,03,04,06,09,19,21,22,31,,,,1.1,0.7,0.8,1*3E
$GNGSA,A,3,65,71,72,87,88,,,,,,,,1.1,0.7,0.8,2*32
$GNGSA,A,3,05,,,,,,,,,,,,1.1,0.7,0.8,4*3E
$GNVTG,130.8,T,130.8,M,2.7,N,5.0,K,A*3D
$GNRMC,074456.00,A,4806.981961,N,01636.738349,E,2.7,130.8,051122,1.8,E,A,V*52
$GNGGA,074456.00,4806.981961,N,01636.738349,E,1,12,0.7,159.1,M,43.0,M,,*7D
$GPGSV,3,1,10,01,45,153,39,03,73,054,27,04,62,205,35,06,17,313,38,1*62
$GPGSV,3,2,10,09,26,222,31,17,33,255,36,19,30,292,23,21,24,151,26,1*6F
$GPGSV,3,3,10,22,15,047,25,31,27,057,29,1*6B
$GLGSV,2,1,07,74,03,115,23,73,17,074,37,65,30,254,29,88,37,319,28,1*70
$GLGSV,2,2,07,87,66,239,31,71,37,047,21,72,73,320,25,1*4F
$GBGSV,4,1,14,37,07,133,24,35,18,317,25,32,55,061,26,30,28,195,37,1*7D
$GBGSV,4,2,14,29,47,265,30,23,18,085,27,20,62,268,31,19,13,255,24,1*79
$GBGSV,4,3,14,16,21,040,26,09,42,059,21,06,28,046,20,05,22,127,30,1*7E
$GBGSV,4,4,14,02,06,106,,25,11,037,,1*73
$GNGSA,A,3,01,03,04,06,09,19,21,22,31,,,,1.1,0.7,0.8,1*3E
$GNGSA,A,3,65,71,72,87,88,,,,,,,,1.1,0.7,0.8,2*32
$GNGSA,A,3,05,,,,,,,,,,,,1.1,0.7,0.8,4*3E
$GNVTG,138.2,T,138.2,M,2.5,N,4.7,K,A*39
$GNRMC,074457.00,A,4806.981503,N,01636.739509,E,2.5,138.2,051122,1.8,E,A,V*58
$GNGGA,074457.00,4806.981503,N,01636.739509,E,1,12,0.7,162.3,M,43.0,M,,*7D
$GPGSV,3,1,10,01,45,153,41,03,73,054,31,04,62,205,35,06,17,313,32,1*60
$GPGSV,3,2,10,09,26,222,27,17,33,255,34,19,30,292,24,21,24,151,30,1*6A
$GPGSV,3,3,10,22,15,047,26,31,27,057,32,1*62
$GLGSV,2,1,07,74,03,115,23,73,17,074,31,65,30,254,28,88,37,319,28,1*77
$GLGSV,2,2,07,87,66,239,32,71,37,047,24,72,73,320,24,1*48
$GBGSV,4,1,14,37,07,133,24,35,18,317,31,32,55,061,26,30,28,195,40,1*78
$GBGSV,4,2,14,29,47,265,31,23,18,085,25,20,62,268,32,19,13,255,24,1*79
$GBGSV,4,3,14,16,21,040,27,09,42,059,20,06,28,046,20,05,22,127,30,1*7E
$GBGSV,4,4,14,02,06,106,,25,11,037,,1*73
$GNGSA,A,3,01,04,06,09,19,21,,,,,,,1.4,1.2,0.8,1*3E
$GNGSA,A,3,65,72,87,88,,,,,,,,,1.4,1.2,0.8,2*35
$GNGSA,A,3,05,,,,,,,,,,,,1.4,1.2,0.8,4*3F
$GNVTG,133.6,T,133.6,M,2.2,N,4.1,K,A*38
$GNRMC,074458.00,A,4806.981127,N,01636.740345,E,2.2,133.6,051122,1.8,E,A,V*5D
$GNGGA,074458.00,4806.981127,N,01636.740345,E,1,11,1.2,161.9,M,43.0,M,,*7E
$GPGSV,3,1,10,01,45,153,38,03,73,054,30,04,62,205,37,06,17,313,32,1*6D
$GPGSV,3,2,10,09,26,222,32,17,33,255,34,19,30,292,24,21,24,151,27,1*68
$GPGSV,3,3,10,22,15,047,28,31,27,057,34,1*6A
$GLGSV,2,1,07,74,03,115,23,73,17,074,31,65,30,254,29,88,37,319,30,1*7F
$GLGSV,2,2,07,87,66,239,33,71,37,047,23,72,73,320,23,1*49
$GBGSV,4,1,14,37,07,133,24,35,18,317,33,32,55,061,26,30,28,195,36,1*7B
$GBGSV,4,2,14,29,47,265,32,23,18,085,26,20,62,268,33,19,13,255,22,1*7E
$GBGSV,4,3,14,16,21,040,25,09,42,059,20,06,28,046,20,05,22,127,33,1*7F
$GBGSV,4,4,14,02,06,106,,25,11,037,,1*73
$GNGSA,A,3,01,04,06,09,19,21,,,,,,,1.4,1.2,0.8,1*3E
$GNGSA,A,3,65,72,87,88,,,,,,,,,1.4,1.2,0.8,2*35
$GNGSA,A,3,05,,,,,,,,,,,,1.4,1.2,0.8,4*3F
$GNVTG,155.9,T,155.9,M,2.7,N,5.0,K,A*3D
$GNRMC,074459.00,A,4806.980611,N,01636.740500,E,2.7,155.9,051122,1.8,E,A,V*52
$GNGGA,074459.00,4806.980611,N,01636.740500,E,1,11,1.2,162.4,M,43.0,M,,*75
$GPGSV,3,1,10,01,45,153,39,03,73,054,31,04,62,205,38,06,17,313,31,1*61
$GPGSV,3,2,10,09,26,222,35,17,33,255,36,19,30,292,25,21,24,151,32,1*68
$GPGSV,3,3,10,22,15,047,28,31,27,057,37,1*69
$GLGSV,2,1,07,74,03,115,23,73,17,074,32,65,30,254,31,88,37,319,31,1*74
$GLGSV,2,2,07,87,66,239,34,71,37,047,27,72,73,320,28,1*41
$GBGSV,4,1,14,37,07,133,24,35,18,317,30,32,55,061,26,30,28,195,39,1*77
$GBGSV,4,2,14,29,47,265,35,23,18,085,26,20,62,268,34,19,13,255,22,1*7E
$GBGSV,4,3,14,16,21,040,24,09,42,059,20,06,28,046,20,05,22,127,35,1*78
$GBGSV,4,4,14,02,06,106,,25,11,037,,1*73
$GNGSA,A,3,01,04,06,09,19,21,,,,,,,1.4,1.2,0.8,1*3E
$GNGSA,A,3,65,72,87,88,,,,,,,,,1.4,1.2,0.8,2*35
$GNGSA,A,3,05,,,,,,,,,,,,1.4,1.2,0.8,4*3F
$GNVTG,167.3,T,167.3,M,2.7,N,5.0,K,A*3D
$GNRMC,074500.00,A,4806.980065,N,01636.740753,E,2.7,167.3,051122,1.8,E,A,V*55
$GNGGA,074500.00,4806.980065,N,01636.740753,E,1,11,1.2,162.5,M,43.0,M,,*78
$GPGSV,3,1,10,01,45,153,40,03,73,054,28,04,62,205,38,06,17,313,30,1*66
$GPGSV,3,2,10,09,26,222,33,17,33,255,35,19,30,292,25,21,24,151,34,1*6B
$GPGSV,3,3,10,22,15,047,24,31,27,057,33,1*61
$GLGSV,2,1,07,74,03,115,23,73,17,074,28,65,30,254,27,88,37,319,31,1*78
$GLGSV,2,2,07,87,66,239,32,71,37,047,32,72,73,320,25,1*4E
$GBGSV,4,1,14,37,07,133,24,35,18,317,35,32,55,061,26,30,28,195,35,1*7E
$GBGSV,4,2,14,29,47,265,32,23,18,085,25,20,62,268,29,19,13,255,22,1*76
$GBGSV,4,3,14,16,21,040,23,09,42,059,20,06,28,046,22,05,22,127,35,1*7D
$GBGSV,4,4,14,02,06,106,,25,11,037,,1*73
$GNGSA,A,3,01,04,06,09,19,21,,,,,,,1.4,1.2,0.8,1*3E
$GNGSA,A,3,65,72,87,88,,,,,,,,,1.4,1.2,0.8,2*35
$GNGSA,A,3,05,,,,,,,,,,,,1.4,1.2,0.8,4*3F
$GNVTG,191.1,T,191.1,M,2.3,N,4.3,K,A*3B
$GNRMC,074501.00,A,4806.979733,N,01636.740660,E,2.3,191.1,051122,1.8,E,A,V*58
$GNGGA,074501.00,4806.979733,N,01636.740660,E,1,11,1.2,165.2,M,43.0,M,,*7A
$GPGSV,3,1,10,01,45,153,40,03,73,054,32,04,62,205,36,06,17,313,29,1*6B
$GPGSV,3,2,10,09,26,222,32,17,33,255,36,19,30,292,26,21,24,151,37,1*69
$GPGSV,3,3,10,22,15,047,24,31,27,057,32,1*60
$GLGSV,2,1,07,74,03,115,23,73,17,074,24,65,30,254,28,88,37,319,27,1*7C
$GLGSV,2,2,07,87,66,239,31,71,37,047,31,72,73,320,27,1*4C
$GBGSV,4,1,14,37,07,133,24,35,18,317,30,32,55,061,26,30,28,195,37,1*79
$GBGSV,4,2,14,29,47,265,33,23,18,085,26,20,62,268,30,19,13,255,24,1*7A
$GBGSV,4,3,14,16,21,040,26,09,42,059,21,06,28,046,23,05,22,127,35,1*78
$GBGSV,4,4,14,02,06,106,,25,11,037,,1*73
$GNGSA,A,3,01,04,06,09,19,21,,,,,,,1.4,1.2,0.8,1*3E
$GNGSA,A,3,65,72,87,88,,,,,,,,,1.4,1.2,0.8,2*35
$GNGSA,A,3,05,,,,,,,,,,,,1.4,1.2,0.8,4*3F
$GNVTG,188.1,T,188.1,M,1.7,N,3.1,K,A*39
$GNRMC,074502.00,A,4806.979662,N,01636.740608,E,1.7,188.1,051122,1.8,E,A,V*5F
$GNGGA,074502.00,4806.979662,N,01636.740608,E,1,11,1.2,168.0,M,43.0,M,,*7D
$GPGSV,3,1,10,01,45,153,38,03,73,054,29,04,62,205,33,06,17,313,36,1*65
$GPGSV,3,2,10,09,26,222,38,17,33,255,36,19,30,292,25,21,24,151,33,1*64
$GPGSV,3,3,10,22,15,047,28,31,27,057,38,1*66
$GLGSV,2,1,07,74,03,115,23,73,17,074,25,65,30,254,30,88,37,319,28,1*7B
$GLGSV,2,2,07,87,66,239,31,71,37,047,36,72,73,320,26,1*4A
$GBGSV,4,1,14,37,07,133,24,35,18,317,30,32,55,061,26,30,28,195,37,1*79
$GBGSV,4,2,14,29,47,265,29,23,18,085,23,20,62,268,32,19,13,255,23,1*71
$GBGSV,4,3,14,16,21,040,24,09,42,059,21,06,28,046,23,05,22,127,32,1*7D
$GBGSV,4,4,14,02,06,106,,25,11,037,,1*73
$GNGSA,A,3,01,04,06,09,19,21,31,,,,,,1.2,0.9,0.8,1*30
$GNGSA,A,3,65,72,87,88,,,,,,,,,1.2,0.9,0.8,2*39
$GNGSA,A,3,05,,,,,,,,,,,,1.2,0.9,0.8,4*33
$GNVTG,145.7,T,145.7,M,1.8,N,3.3,K,A*34
$GNRMC,074503.00,A,4806.980158,N,01636.741649,E,1.8,145.7,051122,1.8,E,A,V*5A
$GNGGA,074503.00,4806.980158,N,01636.741649,E,1,12,0.9,168.6,M,43.0,M,,*7F
$GPGSV,3,1,10,01,45,153,39,03,73,054,31,04,62,205,31,06,17,313,33,1*6A
$GPGSV,3,2,10,09,26,222,41,17,33,255,37,19,30,292,25,21,24,151,32,1*6A
$GPGSV,3,3,10,22,15,047,29,31,27,057,33,1*6C
$GLGSV,2,1,07,74,03,115,11,73,17,074,25,65,30,254,29,88,37,319,29,1*73
$GLGSV,2,2,07,87,66,239,32,71,37,047,38,72,73,320,28,1*49
$GBGSV,4,1,14,37,07,133,24,35,18,317,27,32,55,061,26,30,28,195,33,1*7B
$GBGSV,4,2,14,29,47,265,32,23,18,085,25,20,62,268,31,19,13,255,22,1*7F
$GBGSV,4,3,14,16,21,040,25,09,42,059,29,06,28,046,34,05,22,127,35,1*75
$GBGSV,4,4,14,02,06,106,,25,11,037,,1*73
$GNGSA,A,3,01,03,04,06,09,19,21,22,31,,,,1.1,0.7,0.8,1*3E
$GNGSA,A,3,65,71,72,87,88,,,,,,,,1.1,0.7,0.8,2*32
$GNGSA,A,3,05,,,,,,,,,,,,1.1,0.7,0.8,4*3E
$GNVTG,115.0,T,115.0,M,2.4,N,4.4,K,A*3B
$GNRMC,074504.00,A,4806.980605,N,01636.743241,E,2.4,115.0,051122,1.8,E,A,V*51
$GNGGA,074504.00,4806.980605,N,01636.743241,E,1,12,0.7,169.4,M,43.0,M,,*74
$GPGSV,3,1,10,01,45,153,39,03,73,054,31,04,62,205,34,06,17,313,32,1*6E
$GPGSV,3,2,10,09,26,222,42,17,33,255,33,19,30,292,25,21,24,151,31,1*6E
$GPGSV,3,3,10,22,15,047,28,31,27,057,31,1*6F
$GLGSV,2,1,07,74,03,115,11,73,17,074,25,65,30,254,25,88,37,319,25,1*73
$GLGSV,2,2,07,87,66,239,29,71,37,047,38,72,73,320,29,1*42
$GBGSV,4,1,14,37,07,133,24,35,18,317,26,32,55,061,26,30,28,195,33,1*7A
$GBGSV,4,2,14,29,47,265,32,23,18,085,28,20,62,268,35,19,13,255,22,1*76
$GBGSV,4,3,14,16,21,040,28,09,42,059,24,06,28,046,32,05,22,127,33,1*75
$GBGSV,4,4,14,02,06,106,,25,11,037,,1*73
$GNGSA,A,3,01,03,04,06,09,19,21,22,31,,,,1.1,0.7,0.8,1*3E
$GNGSA,A,3,65,71,72,87,88,,,,,,,,1.1,0.7,0.8,2*32
$GNGSA,A,3,05,,,,,,,,,,,,1.1,0.7,0.8,4*3E
$GNVTG,106.1,T,106.1,M,2.4,N,4.4,K,A*3B
$GNRMC,074505.00,A,4806.980929,N,01636.744962,E,2.4,106.1,051122,1.8,E,A,V*5F
$GNGGA,074505.00,4806.980929,N,01636.744962,E,1,12,0.7,169.7,M,43.0,M,,*7A
$GPGSV,3,1,10,01,45,153,39,03,73,054,29,04,62,205,32,06,17,313,31,1*62
$GPGSV,3,2,10,09,26,222,40,17,33,255,36,19,30,292,25,21,24,151,33,1*6B
$GPGSV,3,3,10,22,15,047,22,31,27,057,30,1*64
$GLGSV,2,1,07,74,03,115,11,73,17,074,26,65,30,254,31,88,37,319,25,1*75
$GLGSV,2,2,07,87,66,239,33,71,37,047,31,72,73,320,28,1*41
$GBGSV,4,1,14,37,07,133,24,35,18,317,26,32,55,061,26,30,28,195,27,1*7F
$GBGSV,4,2,14,29,47,265,25,23,18,085,26,20,62,268,33,19,13,255,22,1*78
$GBGSV,4,3,14,16,21,040,28,09,42,059,24,06,28,046,26,05,22,127,32,1*71
$GBGSV,4,4,14,02,06,106,,25,11,037,,1*73
$GNGSA,A,3,01,03,04,06,09,19,21,22,31,,,,1.1,0.7,0.8,1*3E
$GNGSA,A,3,65,71,72,87,88,,,,,,,,1.1,0.7,0.8,2*32
$GNGSA,A,3,05,,,,,,,,,,,,1.1,0.7,0.8,4*3E
$GNVTG,98.0,T,98.0,M,2.0,N,3.7,K,A*3B
$GNRMC,074506.00,A,4806.981230,N,01636.746185,E,2.0,98.0,051122,1.8,E,A,V*6E
$GNGGA,074506.00,4806.981230,N,01636.746185,E,1,12,0.7,170.8,M,43.0,M,,*7F
$GPGSV,3,1,10,01,45,153,42,03,73,054,32,04,62,205,36,06,17,313,28,1*68
$GPGSV,3,2,10,09,26,222,36,17,33,255,37,19,30,292,27,21,24,151,41,1*6C
$GPGSV,3,3,10,22,15,047,24,31,27,057,,1*61
$GLGSV,2,1,07,74,03,115,11,73,17,074,25,65,30,254,31,88,37,319,26,1*75
$GLGSV,2,2,07,87,66,239,29,71,37,047,32,72,73,320,30,1*40
$GBGSV,4,1,14,37,07,133,24,35,18,317,26,32,55,061,26,30,28,195,29,1*71
$GBGSV,4,2,14,29,47,265,30,23,18,085,35,20,62,268,35,19,13,255,23,1*79
$GBGSV,4,3,14,16,21,040,26,09,42,059,21,06,28,046,28,05,22,127,38,1*7E
$GBGSV,4,4,14,02,06,106,,25,11,037,,1*73
$GNGSA,A,3,01,03,04,06,09,19,21,22,31,,,,1.1,0.7,0.8,1*3E
$GNGSA,A,3,65,71,72,87,88,,,,,,,,1.1,0.7,0.8,2*32
$GNGSA,A,3,05,,,,,,,,,,,,1.1,0.7,0.8,4*3E
$GNVTG,71.3,T,71.3,M,2.5,N,4.6,K,A*38
$GNRMC,074507.00,A,4806.981710,N,01636.747688,E,2.5,71.3,051122,1.8,E,A,V*62
$GNGGA,074507.00,4806.981710,N,01636.747688,E,1,12,0.7,169.6,M,43.0,M,,*74
$GPGSV,3,1,10,01,45,153,41,03,73,054,33,04,62,205,34,06,17,313,27,1*67
$GPGSV,3,2,10,09,26,222,38,17,33,255,37,19,30,292,26,21,24,151,45,1*67
$GPGSV,3,3,10,22,15,047,21,31,27,057,,1*64
$GLGSV,2,1,07,74,03,115,11,73,17,074,27,65,30,254,31,88,37,319,25,1*74
$GLGSV,2,2,07,87,66,239,34,71,37,047,31,72,73,320,29,1*47
$GBGSV,4,1,14,37,07,133,24,35,18,317,20,32,55,061,26,30,28,195,27,1*79
$GBGSV,4,2,14,29,47,265,31,23,18,085,35,20,62,268,32,19,13,255,27,1*7B
$GBGSV,4,3,14,16,21,040,25,09,42,059,21,06,28,046,24,05,22,127,34,1*7D
$GBGSV,4,4,14,02,06,106,,25,11,037,,1*73
$GNGSA,A,3,01,03,04,06,09,19,21,22,31,,,,1.1,0.7,0.8,1*3E
$GNGSA,A,3,65,71,72,87,88,,,,,,,,1.1,0.7,0.8,2*32
$GNGSA,A,3,05,,,,,,,,,,,,1.1,0.7,0.8,4*3E
$GNVTG,78.3,T,78.3,M,2.3,N,4.3,K,A*3B
$GNRMC,074508.00,A,4806.982013,N,01636.749238,E,2.3,78.3,051122,1.8,E,A,V*64
$GNGGA,074508.00,4806.982013,N,01636.749238,E,1,12,0.7,167.9,M,43.0,M,,*7C
$GPGSV,3,1,10,01,45,153,40,03,73,054,27,04,62,205,37,06,17,313,24,1*63
$GPGSV,3,2,10,09,26,222,34,17,33,255,37,19,30,292,24,21,24,151,40,1*6C
$GPGSV,3,3,10,22,15,047,27,31,27,057,31,1*60
$GLGSV,2,1,07,74,03,115,11,73,17,074,28,65,30,254,35,88,37,319,27,1*7D
$GLGSV,2,2,07,87,66,239,35,71,37,047,27,72,73,320,31,1*48
$GBGSV,4,1,14,37,07,133,24,35,18,317,24,32,55,061,26,30,28,195,26,1*7C
$GBGSV,4,2,14,29,47,265,32,23,18,085,35,20,62,268,35,19,13,255,28,1*70
$GBGSV,4,3,14,16,21,040,23,09,42,059,21,06,28,046,24,05,22,127,33,1*7C
$GBGSV,4,4,14,02,06,106,,25,11,037,,1*73
$GNGSA,A,3,01,03,04,06,09,19,21,22,31,,,,1.1,0.7,0.8,1*3E
$GNGSA,A,3,65,71,72,87,88,,,,,,,,1.1,0.7,0.8,2*32
$GNGSA,A,3,05,,,,,,,,,,,,1.1,0.7,0.8,4*3E
$GNVTG,88.2,T,88.2,M,2.0,N,3.7,K,A*3B
$GNRMC,074509.00,A,4806.982110,N,01636.750577,E,2.0,88.2,051122,1.8,E,A,V*6E
$GNGGA,074509.00,4806.982110,N,01636.750577,E,1,12,0.7,167.5,M,43.0,M,,*77
$GPGSV,3,1,10,01,45,153,37,03,73,054,30,04,62,205,34,06,17,313,23,1*61
$GPGSV,3,2,10,09,26,222,32,17,33,255,37,19,30,292,25,21,24,151,39,1*65
$GPGSV,3,3,10,22,15,047,24,31,27,057,30,1*62
$GLGSV,2,1,07,74,03,115,11,73,17,074,30,65,30,254,32,88,37,319,29,1*7D
$GLGSV,2,2,07,87,66,239,35,71,37,047,23,72,73,320,28,1*44
$GBGSV,4,1,14,37,07,133,24,35,18,317,24,32,55,061,26,30,28,195,23,1*79
$GBGSV,4,2,14,29,47,265,29,23,18,085,41,20,62,268,32,19,13,255,30,1*77
$GBGSV,4,3,14,16,21,040,24,09,42,059,21,06,28,046,21,05,22,127,33,1*7E
$GBGSV,4,4,14,02,06,106,,25,11,037,,1*73
$GNGSA,A,3,01,03,04,06,09,19,21,22,31,,,,1.1,0.7,0.8,1*3E
$GNGSA,A,3,65,71,72,87,88,,,,,,,,1.1,0.7,0.8,2*32
$GNGSA,A,3,05,,,,,,,,,,,,1.1,0.7,0.8,4*3E
$GNVTG,87.0,T,87.0,M,2.0,N,3.8,K,A*34
$GNRMC,074510.00,A,4806.982139,N,01636.752147,E,2.0,87.0,051122,1.8,E,A,V*65
$GNGGA,074510.00,4806.982139,N,01636.752147,E,1,12,0.7,166.4,M,43.0,M,,*71
$GPGSV,3,1,10,01,45,153,34,03,73,054,32,04,62,205,31,06,17,313,24,1*62
$GPGSV,3,2,10,09,26,222,27,17,33,255,35,19,30,292,27,21,24,151,38,1*60
$GPGSV,3,3,10,22,15,047,28,31,27,057,31,1*6F
$GLGSV,2,1,07,74,03,115,11,73,17,074,35,65,30,254,34,88,37,319,28,1*7F
$GLGSV,2,2,07,87,66,239,30,71,37,047,33,72,73,320,28,1*40
$GBGSV,4,1,14,37,07,133,24,35,18,317,21,32,55,061,26,30,28,195,23,1*7C
$GBGSV,4,2,14,29,47,265,31,23,18,085,41,20,62,268,30,19,13,255,31,1*7D
$GBGSV,4,3,14,16,21,040,27,09,42,059,32,06,28,046,30,05,22,127,30,1*7C
$GBGSV,4,4,14,02,06,106,,25,11,037,,1*73
$GNGSA,A,3,01,03,04,06,09,19,21,22,31,,,,1.1,0.7,0.8,1*3E
$GNGSA,A,3,65,71,72,87,88,,,,,,,,1.1,0.7,0.8,2*32
$GNGSA,A,3,05,,,,,,,,,,,,1.1,0.7,0.8,4*3E
$GNVTG,119.2,T,119.2,M,2.4,N,4.5,K,A*3A
$GNRMC,074511.00,A,4806.982104,N,01636.753679,E,2.4,119.2,051122,1.8,E,A,V*51
$GNGGA,074511.00,4806.982104,N,01636.753679,E,1,12,0.7,166.7,M,43.0,M,,*76
$GPGSV,3,1,10,01,45,153,37,03,73,054,43,04,62,205,36,06,17,313,26,1*62
$GPGSV,3,2,10,09,26,222,29,17,33,255,36,19,30,292,27,21,24,151,37,1*62
$GPGSV,3,3,10,22,15,047,30,31,27,057,36,1*61
$GLGSV,2,1,07,74,03,115,11,73,17,074,39,65,30,254,32,88,37,319,31,1*7D
$GLGSV,2,2,07,87,66,239,36,71,37,047,42,72,73,320,33,1*4A
$GBGSV,4,1,14,37,07,133,24,35,18,317,23,32,55,061,26,30,28,195,27,1*7A
$GBGSV,4,2,14,29,47,265,34,23,18,085,40,20,62,268,35,19,13,255,30,1*7D
$GBGSV,4,3,14,16,21,040,36,09,42,059,37,06,28,046,37,05,22,127,37,1*79
$GBGSV,4,4,14,02,06,106,,25,11,037,,1*73
$GNGSA,A,3,01,03,04,06,09,19,21,22,31,,,,1.1,0.7,0.8,1*3E
$GNGSA,A,3,65,71,72,87,88,,,,,,,,1.1,0.7,0.8,2*32
$GNGSA,A,3,05,,,,,,,,,,,,1.1,0.7,0.8,4*3E
$GNVTG,108.2,T,108.2,M,2.2,N,4.0,K,A*39
$GNRMC,074512.00,A,4806.982408,N,01636.755051,E,2.2,108.2,051122,1.8,E,A,V*57
$GNGGA,074512.00,4806.982408,N,01636.755051,E,1,12,0.7,166.9,M,43.0,M,,*78
$GPGSV,3,1,10,01,45,153,35,03,73,054,36,04,62,205,34,06,17,313,25,1*63
$GPGSV,3,2,10,09,26,222,28,17,33,255,35,21,24,151,38,22,15,047,27,1*6A
$GPGSV,3,3,10,31,27,057,30,19,30,292,,1*61
$GLGSV,2,1,07,74,03,115,11,73,17,074,33,65,30,254,29,88,37,319,27,1*7A
$GLGSV,2,2,07,87,66,239,32,71,37,047,40,72,73,320,27,1*49
$GBGSV,4,1,14,37,07,133,24,35,18,317,25,32,55,061,26,30,28,195,24,1*7F
$GBGSV,4,2,14,29,47,265,33,23,18,085,35,20,62,268,32,19,13,255,26,1*78
$GBGSV,4,3,14,16,21,040,32,09,42,059,31,06,28,046,33,05,22,127,37,1*7F
$GBGSV,4,4,14,02,06,106,,25,11,037,,1*73
$GNGSA,A,3,01,03,04,06,09,19,21,22,31,,,,1.1,0.7,0.8,1*3E
$GNGSA,A,3,65,71,72,87,88,,,,,,,,1.1,0.7,0.8,2*32
$GNGSA,A,3,05,,,,,,,,,,,,1.1,0.7,0.8,4*3E
$GNVTG,104.6,T,104.6,M,2.1,N,3.9,K,A*34
$GNRMC,074513.00,A,4806.982660,N,01636.756324,E,2.1,104.6,051122,1.8,E,A,V*53
$GNGGA,074513.00,4806.982660,N,01636.756324,E,1,12,0.7,166.2,M,43.0,M,,*7C
$GPGSV,3,1,10,01,45,153,35,03,73,054,41,04,62,205,33,06,17,313,25,1*64
$GPGSV,3,2,10,09,26,222,27,17,33,255,37,19,30,292,27,21,24,151,37,1*6D
$GPGSV,3,3,10,22,15,047,30,31,27,057,36,1*61
$GLGSV,2,1,07,74,03,115,11,73,17,074,34,65,30,254,34,88,37,319,33,1*74
$GLGSV,2,2,07,87,66,239,31,71,37,047,39,72,73,320,33,1*41
$GBGSV,4,1,14,37,07,133,24,35,18,317,27,32,55,061,26,30,28,195,24,1*7D
$GBGSV,4,2,14,29,47,265,32,23,18,085,30,20,62,268,31,19,13,255,27,1*7E
$GBGSV,4,3,14,16,21,040,31,09,42,059,32,06,28,046,31,05,22,127,31,1*7B
$GBGSV,4,4,14,02,06,106,,25,11,037,,1*73
$GNGSA,A,3,01,03,04,06,09,19,21,22,31,,,,1.1,0.7,0.8,1*3E
$GNGSA,A,3,65,71,72,87,88,,,,,,,,1.1,0.7,0.8,2*32
$GNGSA,A,3,05,,,,,,,,,,,,1.1,0.7,0.8,4*3E
$GNVTG,132.3,T,132.3,M,2.4,N,4.4,K,A*3B
$GNRMC,074514.00,A,4806.982504,N,01636.757325,E,2.4,132.3,051122,1.8,E,A,V*50
$GNGGA,074514.00,4806.982504,N,01636.757325,E,1,12,0.7,166.4,M,43.0,M,,*7C
$GPGSV,3,1,10,01,45,153,39,03,73,054,38,04,62,205,36,06,17,313,29,1*6F
$GPGSV,3,2,10,09,26,222,26,17,33,255,36,19,30,292,27,21,24,151,39,1*63
$GPGSV,3,3,10,22,15,047,25,31,27,057,34,1*67
$GLGSV,2,1,07,74,03,115,11,73,17,074,35,65,30,254,35,88,37,319,33,1*74
$GLGSV,2,2,07,87,66,239,28,71,37,047,36,72,73,320,31,1*44
$GBGSV,4,1,14,35,18,317,31,30,28,195,24,29,47,265,31,23,18,085,30,1*71
$GBGSV,4,2,14,20,62,268,27,19,13,255,29,16,21,040,27,09,42,059,32,1*7E
$GBGSV,4,3,14,06,28,046,30,05,22,127,33,02,06,106,,25,11,037,,1*78
$GBGSV,4,4,14,32,55,061,,37,07,133,,1*77
$GNGSA,A,3,01,03,04,06,09,19,21,22,31,,,,1.1,0.7,0.8,1*3E
$GNGSA,A,3,65,71,72,87,88,,,,,,,,1.1,0.7,0.8,2*32
$GNGSA,A,3,05,,,,,,,,,,,,1.1,0.7,0.8,4*3E
$GNVTG,134.2,T,134.2,M,2.0,N,3.7,K,A*3B
$GNRMC,074515.00,A,4806.982447,N,01636.758426,E,2.0,134.2,051122,1.8,E,A,V*5F
$GNGGA,074515.00,4806.982447,N,01636.758426,E,1,12,0.7,165.6,M,43.0,M,,*71
$GPGSV,3,1,10,01,45,153,40,03,73,054,41,04,62,205,34,06,17,313,32,1*67
$GPGSV,3,2,10,09,26,222,24,17,33,255,39,19,30,292,28,21,24,151,35,1*6D
$GPGSV,3,3,10,22,15,047,31,31,27,057,34,1*62
$GLGSV,2,1,07,74,03,115,11,73,17,074,40,65,30,254,31,88,37,319,29,1*79
$GLGSV,2,2,07,87,66,239,33,71,37,047,37,72,73,320,33,1*4D
$GBGSV,4,1,14,35,18,317,35,30,28,195,30,29,47,265,35,23,18,085,33,1*77
$GBGSV,4,2,14,20,62,268,32,19,13,255,30,16,21,040,25,09,42,059,33,1*71
$GBGSV,4,3,14,06,28,046,28,05,22,127,36,02,06,106,,25,11,037,,1*74
$GBGSV,4,4,14,32,55,061,,37,07,133,,1*77
$GNGSA,A,3,01,03,04,06,09,19,21,22,31,,,,1.1,0.7,0.8,1*3E
$GNGSA,A,3,65,71,72,87,88,,,,,,,,1.1,0.7,0.8,2*32
$GNGSA,A,3,05,,,,,,,,,,,,1.1,0.7,0.8,4*3E
$GNVTG,135.4,T,135.4,M,2.1,N,4.0,K,A*3A
$GNRMC,074516.00,A,4806.982126,N,01636.759281,E,2.1,135.4,051122,1.8,E,A,V*52
$GNGGA,074516.00,4806.982126,N,01636.759281,E,1,12,0.7,166.1,M,43.0,M,,*7E
$GPGSV,3,1,10,01,45,153,43,03,73,054,38,04,62,205,36,06,17,313,37,1*6D
$GPGSV,3,2,10,09,26,222,30,17,33,255,36,19,30,292,31,21,24,151,41,1*6C
$GPGSV,3,3,10,22,15,047,30,31,27,057,38,1*6F
$GLGSV,2,1,07,74,03,115,11,73,17,074,38,65,30,254,29,88,37,319,29,1*7F
$GLGSV,2,2,07,87,66,239,33,71,37,047,34,72,73,320,36,1*4B
$GBGSV,4,1,14,35,18,317,31,30,28,195,37,29,47,265,36,23,18,085,31,1*75
$GBGSV,4,2,14,20,62,268,36,19,13,255,28,16,21,040,26,09,42,059,37,1*7B
$GBGSV,4,3,14,06,28,046,28,05,22,127,36,02,06,106,,25,11,037,,1*74
$GBGSV,4,4,14,32,55,061,,37,07,133,,1*77
$GNGSA,A,3,01,03,04,06,09,19,21,22,31,,,,1.1,0.7,0.8,1*3E
$GNGSA,A,3,65,71,72,87,88,,,,,,,,1.1,0.7,0.8,2*32
$GNGSA,A,3,05,,,,,,,,,,,,1.1,0.7,0.8,4*3E
$GNVTG,145.6,T,145.6,M,2.2,N,4.1,K,A*38
$GNRMC,074517.00,A,4806.981886,N,01636.760478,E,2.2,145.6,051122,1.8,E,A,V*5F
$GNGGA,074517.00,4806.981886,N,01636.760478,E,1,12,0.7,165.1,M,43.0,M,,*76
$GPGSV,3,1,10,01,45,153,42,03,73,054,42,04,62,205,32,06,17,313,30,1*62
$GPGSV,3,2,10,09,26,222,28,17,33,255,36,19,30,292,31,21,24,151,40,1*64
$GPGSV,3,3,10,22,15,047,26,31,27,057,42,1*65
$GLGSV,2,1,07,74,03,115,11,73,17,074,30,65,30,254,36,88,37,319,29,1*79
$GLGSV,2,2,07,87,66,239,32,71,37,047,32,72,73,320,35,1*4F
$GBGSV,4,1,14,35,18,317,26,30,28,195,33,29,47,265,37,23,18,085,28,1*7E
$GBGSV,4,2,14,20,62,268,33,19,13,255,28,16,21,040,26,09,42,059,37,1*7E
$GBGSV,4,3,14,06,28,046,25,05,22,127,31,02,06,106,,25,11,037,,1*7E
$GBGSV,4,4,14,32,55,061,,37,07,133,,1*77
$GNGSA,A,3,01,03,04,06,09,19,21,22,31,,,,1.1,0.7,0.8,1*3E
$GNGSA,A,3,65,71,72,87,88,,,,,,,,1.1,0.7,0.8,2*32
$GNGSA,A,3,05,,,,,,,,,,,,1.1,0.7,0.8,4*3E
$GNVTG,164.4,T,164.4,M,2.1,N,3.9,K,A*34
$GNRMC,074518.00,A,4806.981387,N,01636.761055,E,2.1,164.4,051122,1.8,E,A,V*52
$GNGGA,074518.00,4806.981387,N,01636.761055,E,1,12,0.7,164.5,M,43.0,M,,*7C
$GPGSV,3,1,10,01,45,153,36,03,73,054,40,04,62,205,32,06,17,313,32,1*61
$GPGSV,3,2,10,09,26,222,29,17,33,255,41,19,30,292,38,21,24,151,37,1*6C
$GPGSV,3,3,10,22,15,047,34,31,27,057,44,1*60
$GLGSV,2,1,07,74,03,115,11,73,17,074,27,65,30,254,33,88,37,319,27,1*74
$GLGSV,2,2,07,87,66,239,33,71,37,047,36,72,73,320,31,1*4E
$GBGSV,4,1,14,35,18,317,32,30,28,195,35,29,47,265,35,23,18,085,30,1*76
$GBGSV,4,2,14,20,62,268,35,19,13,255,27,16,21,040,28,09,42,059,33,1*7D
$GBGSV,4,3,14,06,28,046,26,05,22,127,31,02,06,106,,25,11,037,,1*7D
$GBGSV,4,4,14,32,55,061,,37,07,133,,1*77
$GNGSA,A,3,01,03,04,06,09,19,21,22,31,,,,1.1,0.7,0.8,1*3E
$GNGSA,A,3,65,71,72,87,88,,,,,,,,1.1,0.7,0.8,2*32
$GNGSA,A,3,05,,,,,,,,,,,,1.1,0.7,0.8,4*3E
$GNVTG,139.7,T,139.7,M,2.4,N,4.5,K,A*3A
$GNRMC,074519.00,A,4806.981018,N,01636.762103,E,2.4,139.7,051122,1.8,E,A,V*59
$GNGGA,074519.00,4806.981018,N,01636.762103,E,1,12,0.7,164.4,M,43.0,M,,*78
$GPGSV,3,1,10,01,45,153,36,03,73,054,41,04,62,205,31,06,17,313,33,1*62
$GPGSV,3,2,10,09,26,222,25,17,33,255,41,19,30,292,32,21,24,151,40,1*6A
$GPGSV,3,3,10,22,15,047,31,31,27,057,36,1*60
$GLGSV,2,1,07,74,03,115,11,73,17,074,30,65,30,254,32,88,37,319,26,1*72
$GLGSV,2,2,07,87,66,239,33,71,37,047,34,72,73,320,33,1*4E
$GBGSV,4,1,14,35,18,317,28,30,28,195,36,29,47,265,33,23,18,085,33,1*7B
$GBGSV,4,2,14,20,62,268,33,19,13,255,28,16,21,040,27,09,42,059,35,1*7D
$GBGSV,4,3,14,06,28,046,30,05,22,127,31,02,06,106,,25,11,037,,1*7A
$GBGSV,4,4,14,32,55,061,,37,07,133,,1*77
$GNGSA,A,3,01,03,04,06,09,19,21,22,31,,,,1.1,0.7,0.8,1*3E
$GNGSA,A,3,65,71,72,87,88,,,,,,,,1.1,0.7,0.8,2*32
$GNGSA,A,3,05,,,,,,,,,,,,1.1,0.7,0.8,4*3E
$GNVTG,144.1,T,144.1,M,2.2,N,4.0,K,A*39
$GNRMC,074520.00,A,4806.980591,N,01636.762854,E,2.2,144.1,051122,1.8,E,A,V*57
$GNGGA,074520.00,4806.980591,N,01636.762854,E,1,12,0.7,163.5,M,43.0,M,,*7A
$GPGSV,3,1,10,01,45,153,41,03,73,054,37,04,62,205,33,06,17,313,27,1*64
$GPGSV,3,2,10,09,26,222,34,17,33,255,40,19,30,292,34,21,24,151,43,1*6E
$GPGSV,3,3,10,22,15,047,30,31,27,057,34,1*63
$GLGSV,2,1,07,74,03,115,11,73,17,074,30,65,30,254,32,88,37,319,25,1*71
$GLGSV,2,2,07,87,66,239,33,71,37,047,40,72,73,320,32,1*4C
$GBGSV,4,1,14,35,18,317,28,30,28,195,35,29,47,265,35,23,18,085,30,1*7D
$GBGSV,4,2,14,20,62,268,32,19,13,255,24,16,21,040,30,09,42,059,36,1*75
$GBGSV,4,3,14,06,28,046,35,05,22,127,23,02,06,106,,25,11,037,,1*7C
$GBGSV,4,4,14,32,55,061,,37,07,133,,1*77
$GNGSA,A,3,01,03,04,06,09,19,21,22,31,,,,1.1,0.7,0.8,1*3E
$GNGSA,A,3,65,71,72,87,88,,,,,,,,1.1,0.7,0.8,2*32
$GNGSA,A,3,05,,,,,,,,,,,,1.1,0.7,0.8,4*3E
$GNVTG,172.8,T,172.8,M,2.7,N,4.9,K,A*35
$GNRMC,074521.00,A,4806.979868,N,01636.763437,E,2.7,172.8,051122,1.8,E,A,V*5A
$GNGGA,074521.00,4806.979868,N,01636.763437,E,1,12,0.7,163.8,M,43.0,M,,*73
$GPGSV,3,1,10,01,45,153,40,03,73,054,39,04,62,205,31,06,17,313,28,1*66
$GPGSV,3,2,10,09,26,222,35,17,33,255,36,19,30,292,38,21,24,151,43,1*62
$GPGSV,3,3,10,22,15,047,31,31,27,057,40,1*61
$GLGSV,2,1,07,74,03,115,11,73,17,074,32,65,30,254,31,88,37,319,27,1*72
$GLGSV,2,2,07,87,66,239,32,71,37,047,43,72,73,320,33,1*4F
$GBGSV,4,1,14,35,18,317,25,30,28,195,37,29,47,265,35,23,18,085,24,1*77
$GBGSV,4,2,14,20,62,268,32,19,13,255,24,16,21,040,38,09,42,059,35,1*7E
$GBGSV,4,3,14,06,28,046,34,05,22,127,23,02,06,106,,25,11,037,,1*7D
$GBGSV,4,4,14,32,55,061,,37,07,133,,1*77
$GNGSA,A,3,01,03,04,06,09,19,21,22,31,,,,1.1,0.7,0.8,1*3E
$GNGSA,A,3,65,71,72,87,88,,,,,,,,1.1,0.7,0.8,2*32
$GNGSA,A,3,05,,,,,,,,,,,,1.1,0.7,0.8,4*3E
$GNVTG,171.0,T,171.0,M,2.4,N,4.4,K,A*3B
$GNRMC,074522.00,A,4806.979090,N,01636.764100,E,2.4,171.0,051122,1.8,E,A,V*58
$GNGGA,074522.00,4806.979090,N,01636.764100,E,1,12,0.7,163.8,M,43.0,M,,*79
$GPGSV,3,1,10,01,45,153,33,03,73,054,39,04,62,205,33,06,17,313,25,1*6D
$GPGSV,3,2,10,09,26,222,30,17,33,255,35,19,30,292,36,21,24,151,37,1*69
$GPGSV,3,3,10,22,15,047,29,31,27,057,39,1*66
$GLGSV,2,1,07,74,03,115,11,73,17,074,29,65,30,254,28,88,37,319,30,1*76
$GLGSV,2,2,07,87,66,239,30,71,37,047,35,72,73,320,28,1*46
$GBGSV,4,1,14,35,18,317,23,30,28,195,35,29,47,265,36,23,18,085,24,1*70
$GBGSV,4,2,14,20,62,268,34,19,13,255,25,16,21,040,29,09,42,059,25,1*78
$GBGSV,4,3,14,06,28,046,26,05,22,127,23,02,06,106,,25,11,037,,1*7E
$GBGSV,4,4,14,32,55,061,,37,07,133,,1*77
$GNGSA,A,3,01,03,04,06,09,19,21,22,31,,,,1.1,0.7,0.8,1*3E
$GNGSA,A,3,65,71,72,87,88,,,,,,,,1.1,0.7,0.8,2*32
$GNGSA,A,3,05,,,,,,,,,,,,1.1,0.7,0.8,4*3E
$GNVTG,158.0,T,158.0,M,2.4,N,4.4,K,A*3B
$GNRMC,074523.00,A,4806.978353,N,01636.764909,E,2.4,158.0,051122,1.8,E,A,V*5E
$GNGGA,074523.00,4806.978353,N,01636.764909,E,1,12,0.7,164.1,M,43.0,M,,*7A
$GPGSV,3,1,10,01,45,153,33,03,73,054,37,04,62,205,33,06,17,313,23,1*65
$GPGSV,3,2,10,09,26,222,33,17,33,255,33,19,30,292,37,21,24,151,38,1*62
$GPGSV,3,3,10,22,15,047,30,31,27,057,35,1*62
$GLGSV,2,1,06,73,17,074,24,65,30,254,31,88,37,319,30,87,66,239,31,1*72
$GLGSV,2,2,06,71,37,047,31,72,73,320,31,1*7F
$GBGSV,4,1,14,35,18,317,24,30,28,195,35,29,47,265,35,23,18,085,22,1*72
$GBGSV,4,2,14,20,62,268,32,19,13,255,24,16,21,040,29,09,42,059,26,1*7C
$GBGSV,4,3,14,06,28,046,28,05,22,127,23,02,06,106,,25,11,037,,1*70
$GBGSV,4,4,14,32,55,061,,37,07,133,,1*77
$GNGSA,A,3,01,03,04,06,09,19,21,22,31,,,,1.1,0.7,0.8,1*3E
$GNGSA,A,3,65,71,72,87,88,,,,,,,,1.1,0.7,0.8,2*32
$GNVTG,166.3,T,166.3,M,2.3,N,4.3,K,A*3B
$GNRMC,074524.00,A,4806.977435,N,01636.765680,E,2.3,166.3,051122,1.8,E,A,V*57
$GNGGA,074524.00,4806.977435,N,01636.765680,E,1,12,0.7,163.6,M,43.0,M,,*7A
$GPGSV,3,1,10,01,45,153,37,03,73,054,38,04,62,205,31,06,17,313,23,1*6C
$GPGSV,3,2,10,09,26,222,38,17,33,255,39,19,30,292,35,21,24,151,42,1*6C
$GPGSV,3,3,10,22,15,047,35,31,27,057,39,1*6B
$GLGSV,2,1,07,73,17,074,25,65,30,254,33,88,37,319,29,87,66,239,31,1*78
$GLGSV,2,2,07,71,37,047,34,72,73,320,31,74,03,115,,1*4E
$GBGSV,4,1,14,35,18,317,24,30,28,195,32,29,47,265,35,23,18,085,22,1*75
$GBGSV,4,2,14,20,62,268,33,19,13,255,25,16,21,040,30,09,42,059,24,1*76
$GBGSV,4,3,14,06,28,046,27,05,22,127,23,02,06,106,,25,11,037,,1*7F
$GBGSV,4,4,14,32,55,061,,37,07,133,,1*77
$GNGSA,A,3,01,03,04,06,09,19,21,22,31,,,,1.1,0.7,0.8,1*3E
$GNGSA,A,3,65,71,72,87,88,,,,,,,,1.1,0.7,0.8,2*32
$GNVTG,166.4,T,166.4,M,2.3,N,4.2,K,A*3A
$GNRMC,074525.00,A,4806.976579,N,01636.766291,E,2.3,166.4,051122,1.8,E,A,V*5E
$GNGGA,074525.00,4806.976579,N,01636.766291,E,1,12,0.7,163.4,M,43.0,M,,*76
$GPGSV,3,1,10,01,45,153,37,03,73,054,39,04,62,205,30,06,17,313,25,1*6A
$GPGSV,3,2,10,09,26,222,36,17,33,255,35,19,30,292,35,21,24,151,39,1*62
$GPGSV,3,3,10,22,15,047,32,31,27,057,31,1*64
$GLGSV,2,1,07,73,17,074,25,65,30,254,25,88,37,319,31,87,66,239,33,1*74
$GLGSV,2,2,07,71,37,047,32,72,73,320,30,74,03,115,,1*49
$GBGSV,4,1,14,35,18,317,24,30,28,195,35,29,47,265,34,23,18,085,23,1*72
$GBGSV,4,2,14,20,62,268,32,19,13,255,30,16,21,040,28,09,42,059,26,1*78
$GBGSV,4,3,14,06,28,046,28,05,22,127,23,02,06,106,,25,11,037,,1*70
$GBGSV,4,4,14,32,55,061,,37,07,133,,1*77
$GNGSA,A,3,01,03,04,06,09,19,21,22,31,,,,1.1,0.7,0.8,1*3E
$GNGSA,A,3,65,71,72,87,88,,,,,,,,1.1,0.7,0.8,2*32
$GNVTG,155.8,T,155.8,M,2.3,N,4.3,K,A*3B
$GNRMC,074526.00,A,4806.975841,N,01636.767027,E,2.3,155.8,051122,1.8,E,A,V*5A
$GNGGA,074526.00,4806.975841,N,01636.767027,E,1,12,0.7,163.1,M,43.0,M,,*7B
$GPGSV,3,1,10,01,45,153,40,03,73,054,38,04,62,205,33,06,17,313,22,1*6F
$GPGSV,3,2,10,09,26,222,39,17,33,255,39,19,30,292,37,21,24,151,43,1*6E
$GPGSV,3,3,10,22,15,047,29,31,27,057,29,1*67
$GLGSV,2,1,07,73,17,074,28,65,30,254,38,88,37,319,31,87,66,239,33,1*75
$GLGSV,2,2,07,71,37,047,31,72,73,320,31,74,03,115,,1*4B
$GBGSV,4,1,14,35,18,317,24,30,28,195,39,29,47,265,37,23,18,085,26,1*78
$GBGSV,4,2,14,20,62,268,35,19,13,255,26,16,21,040,33,09,42,059,28,1*7C
$GBGSV,4,3,14,06,28,046,25,05,22,127,22,02,06,106,,25,11,037,,1*7C
$GBGSV,4,4,14,32,55,061,,37,07,133,,1*77
$GNGSA,A,3,01,03,04,06,09,19,21,22,31,,,,1.1,0.7,0.8,1*3E
$GNGSA,A,3,65,71,72,87,88,,,,,,,,1.1,0.7,0.8,2*32
$GNVTG,168.2,T,168.2,M,2.4,N,4.4,K,A*3B
$GNRMC,074527.00,A,4806.975167,N,01636.767480,E,2.4,168.2,051122,1.8,E,A,V*5C
$GNGGA,074527.00,4806.975167,N,01636.767480,E,1,12,0.7,163.8,M,43.0,M,,*77
$GPGSV,3,1,10,01,45,153,38,03,73,054,39,04,62,205,35,06,17,313,25,1*60
$GPGSV,3,2,10,09,26,222,40,17,33,255,32,19,30,292,35,21,24,151,42,1*68
$GPGSV,3,3,10,22,15,047,28,31,27,057,,1*6D
$GLGSV,2,1,07,73,17,074,25,65,30,254,27,88,37,319,33,87,66,239,34,1*73
$GLGSV,2,2,07,71,37,047,29,72,73,320,30,74,03,115,,1*43
$GBGSV,4,1,14,35,18,317,25,30,28,195,40,29,47,265,35,23,18,085,23,1*70
$GBGSV,4,2,14,20,62,268,32,19,13,255,27,16,21,040,26,09,42,059,29,1*7F
$GBGSV,4,3,14,06,28,046,23,05,22,127,22,02,06,106,,25,11,037,,1*7A
$GBGSV,4,4,14,32,55,061,,37,07,133,,1*77
$GNGSA,A,3,01,03,04,06,09,19,21,22,31,,,,1.1,0.7,0.8,1*3E
$GNGSA,A,3,65,71,72,87,88,,,,,,,,1.1,0.7,0.8,2*32
$GNVTG,163.7,T,163.7,M,2.4,N,4.4,K,A*3B
$GNRMC,074528.00,A,4806.974509,N,01636.767981,E,2.4,163.7,051122,1.8,E,A,V*5C
$GNGGA,074528.00,4806.974509,N,01636.767981,E,1,12,0.7,163.7,M,43.0,M,,*76
$GPGSV,3,1,10,01,45,153,42,03,73,054,40,04,62,205,40,06,17,313,28,1*6C
$GPGSV,3,2,10,09,26,222,39,17,33,255,42,19,30,292,35,21,24,151,46,1*65
$GPGSV,3,3,10,22,15,047,26,31,27,057,,1*63
$GLGSV,2,1,07,73,17,074,28,65,30,254,35,88,37,319,32,87,66,239,36,1*7E
$GLGSV,2,2,07,71,37,047,34,72,73,320,33,74,03,115,,1*4C
$GBGSV,4,1,14,35,18,317,25,30,28,195,44,29,47,265,35,23,18,085,23,1*74
$GBGSV,4,2,14,20,62,268,36,19,13,255,27,16,21,040,26,09,42,059,32,1*71
$GBGSV,4,3,14,06,28,046,23,05,22,127,22,02,06,106,,25,11,037,,1*7A
$GBGSV,4,4,14,32,55,061,,37,07,133,,1*77
$GNGSA,A,3,01,03,04,06,09,19,21,22,31,,,,1.1,0.7,0.8,1*3E
$GNGSA,A,3,65,71,72,87,88,,,,,,,,1.1,0.7,0.8,2*32
$GNVTG,163.8,T,163.8,M,2.3,N,4.2,K,A*3A
$GNRMC,074529.00,A,4806.973854,N,01636.768497,E,2.3,163.8,051122,1.8,E,A,V*52
$GNGGA,074529.00,4806.973854,N,01636.768497,E,1,12,0.7,162.9,M,43.0,M,,*7F
$GPGSV,3,1,10,01,45,153,43,03,73,054,39,04,62,205,36,06,17,313,29,1*63
$GPGSV,3,2,10,09,26,222,42,17,33,255,35,19,30,292,38,21,24,151,46,1*64
$GPGSV,3,3,10,22,15,047,24,31,27,057,,1*61
$GLGSV,2,1,07,73,17,074,27,65,30,254,31,88,37,319,32,87,66,239,34,1*77
$GLGSV,2,2,07,71,37,047,32,72,73,320,34,74,03,115,,1*4D
$GBGSV,4,1,14,35,18,317,25,30,28,195,39,29,47,265,35,23,18,085,23,1*7E
$GBGSV,4,2,14,20,62,268,35,19,13,255,27,16,21,040,26,09,42,059,28,1*79
$GBGSV,4,3,14,06,28,046,23,05,22,127,22,02,06,106,,25,11,037,,1*7A
$GBGSV,4,4,14,32,55,061,,37,07,133,,1*77
$GNGSA,A,3,01,03,04,06,09,19,21,22,31,,,,1.1,0.7,0.8,1*3E
$GNGSA,A,3,65,71,72,87,88,,,,,,,,1.1,0.7,0.8,2*32
$GNVTG,177.1,T,177.1,M,2.8,N,5.2,K,A*30
$GNRMC,074530.00,A,4806.972955,N,01636.768911,E,2.8,177.1,051122,1.8,E,A,V*5F
$GNGGA,074530.00,4806.972955,N,01636.768911,E,1,12,0.7,162.9,M,43.0,M,,*75
$GPGSV,3,1,10,01,45,153,41,03,73,054,42,04,62,205,36,06,17,313,30,1*65
$GPGSV,3,2,10,09,26,222,38,17,33,255,40,19,30,292,32,21,24,151,44,1*63
$GPGSV,3,3,10,22,15,047,23,31,27,057,30,1*65
$GLGSV,2,1,07,73,17,074,25,65,30,254,32,88,37,319,31,87,66,239,30,1*71
$GLGSV,2,2,07,71,37,047,28,72,73,320,34,74,03,115,,1*46
$GBGSV,4,1,14,35,18,317,25,30,28,195,41,29,47,265,35,23,18,085,23,1*71
$GBGSV,4,2,14,20,62,268,32,19,13,255,27,16,21,040,26,09,42,059,24,1*72
$GBGSV,4,3,14,06,28,046,23,05,22,127,25,02,06,106,,25,11,037,,1*7D
$GBGSV,4,4,14,32,55,061,,37,07,133,,1*77
$GNGSA,A,3,01,03,04,06,09,19,21,22,31,,,,1.1,0.7,0.8,1*3E
$GNGSA,A,3,65,71,72,87,88,,,,,,,,1.1,0.7,0.8,2*32
$GNGSA,A,3,05,,,,,,,,,,,,1.1,0.7,0.8,4*3E
$GNVTG,175.6,T,175.6,M,2.4,N,4.5,K,A*3A
$GNRMC,074531.00,A,4806.972199,N,01636.769313,E,2.4,175.6,051122,1.8,E,A,V*56
$GNGGA,074531.00,4806.972199,N,01636.769313,E,1,12,0.7,162.5,M,43.0,M,,*79
$GPGSV,3,1,10,01,45,153,41,03,73,054,41,04,62,205,35,06,17,313,30,1*65
$GPGSV,3,2,10,09,26,222,36,17,33,255,35,19,30,292,34,21,24,151,43,1*6E
$GPGSV,3,3,10,22,15,047,22,31,27,057,,1*67
$GLGSV,2,1,07,73,17,074,25,65,30,254,28,88,37,319,32,87,66,239,29,1*71
$GLGSV,2,2,07,71,37,047,29,72,73,320,34,74,03,115,,1*47
$GBGSV,4,1,14,35,18,317,25,30,28,195,41,29,47,265,35,23,18,085,23,1*71
$GBGSV,4,2,14,20,62,268,34,19,13,255,27,16,21,040,26,09,42,059,24,1*74
$GBGSV,4,3,14,06,28,046,23,05,22,127,25,02,06,106,,25,11,037,,1*7D
$GBGSV,4,4,14,32,55,061,,37,07,133,,1*77
$GNGSA,A,3,01,03,04,06,09,19,21,22,31,,,,1.1,0.7,0.8,1*3E
$GNGSA,A,3,65,71,72,87,88,,,,,,,,1.1,0.7,0.8,2*32
$GNGSA,A,3,05,,,,,,,,,,,,1.1,0.7,0.8,4*3E
$GNVTG,166.5,T,166.5,M,2.5,N,4.6,K,A*38
$GNRMC,074532.00,A,4806.971451,N,01636.769853,E,2.5,166.5,051122,1.8,E,A,V*58
$GNGGA,074532.00,4806.971451,N,01636.769853,E,1,12,0.7,162.3,M,43.0,M,,*71
$GPGSV,3,1,10,01,45,153,43,03,73,054,41,04,62,205,32,06,17,313,34,1*64
$GPGSV,3,2,10,09,26,222,36,17,33,255,33,19,30,292,34,21,24,151,43,1*68
$GPGSV,3,3,10,22,15,047,25,31,27,057,,1*60
$GLGSV,2,1,07,73,17,074,24,65,30,254,32,88,37,319,33,87,66,239,33,1*71
$GLGSV,2,2,07,71,37,047,28,72,73,320,33,74,03,115,,1*41
$GBGSV,4,1,14,30,28,195,36,29,47,265,35,23,18,085,23,20,62,268,33,1*76
$GBGSV,4,2,14,19,13,255,27,16,21,040,26,09,42,059,24,06,28,046,23,1*76
$GBGSV,4,3,14,05,22,127,25,02,06,106,,25,11,037,,32,55,061,,1*74
$GBGSV,4,4,14,35,18,317,,37,07,133,,1*7B
$GNGSA,A,3,01,03,04,06,09,19,21,22,,,,,1.1,0.8,0.8,1*33
$GNGSA,A,3,65,71,72,87,88,,,,,,,,1.1,0.8,0.8,2*3D
$GNGSA,A,3,05,,,,,,,,,,,,1.1,0.8,0.8,4*31
$GNVTG,165.8,T,165.8,M,2.6,N,4.8,K,A*35
$GNRMC,074533.00,A,4806.970562,N,01636.770463,E,2.6,165.8,051122,1.8,E,A,V*53
$GNGGA,074533.00,4806.970562,N,01636.770463,E,1,12,0.8,162.7,M,43.0,M,,*7C
$GPGSV,3,1,10,01,45,153,40,03,73,054,35,04,62,205,35,06,17,313,36,1*61
$GPGSV,3,2,10,09,26,222,38,17,33,255,34,19,30,292,34,21,24,151,43,1*61
$GPGSV,3,3,10,22,15,047,25,31,27,057,29,1*6B
$GLGSV,2,1,07,73,17,074,24,65,30,254,30,88,37,319,35,87,66,239,31,1*77
$GLGSV,2,2,07,71,37,047,25,72,73,320,30,74,03,115,,1*4F
$GBGSV,4,1,14,30,28,195,34,29,47,265,35,23,18,085,23,20,62,268,35,1*72
$GBGSV,4,2,14,19,13,255,27,16,21,040,26,09,42,059,22,06,28,046,23,1*70
$GBGSV,4,3,14,05,22,127,25,02,06,106,,25,11,037,,32,55,061,,1*74
$GBGSV,4,4,14,35,18,317,,37,07,133,,1*7B
$GNGSA,A,3,01,03,04,06,09,19,21,22,31,,,,1.1,0.7,0.8,1*3E
$GNGSA,A,3,65,71,72,87,88,,,,,,,,1.1,0.7,0.8,2*32
$GNGSA,A,3,05,,,,,,,,,,,,1.1,0.7,0.8,4*3E
$GNVTG,170.5,T,170.5,M,2.6,N,4.8,K,A*35
$GNRMC,074534.00,A,4806.969679,N,01636.771026,E,2.6,170.5,051122,1.8,E,A,V*58
$GNGGA,074534.00,4806.969679,N,01636.771026,E,1,12,0.7,162.9,M,43.0,M,,*7F
$GPGSV,3,1,10,01,45,153,39,03,73,054,39,04,62,205,35,06,17,313,36,1*63
$GPGSV,3,2,10,09,26,222,38,17,33,255,38,19,30,292,29,21,24,151,42,1*60
$GPGSV,3,3,10,22,15,047,24,31,27,057,27,1*64
$GLGSV,2,1,07,73,17,074,24,65,30,254,34,88,37,319,33,87,66,239,34,1*70
$GLGSV,2,2,07,71,37,047,29,72,73,320,32,74,03,115,,1*41
$GBGSV,4,1,14,30,28,195,35,29,47,265,35,23,18,085,23,20,62,268,36,1*70
$GBGSV,4,2,14,19,13,255,27,16,21,040,26,09,42,059,22,06,28,046,23,1*70
$GBGSV,4,3,14,05,22,127,25,02,06,106,,25,11,037,,32,55,061,,1*74
$GBGSV,4,4,14,35,18,317,,37,07,133,,1*7B
$GNGSA,A,3,01,03,04,06,09,19,21,22,31,,,,1.1,0.7,0.8,1*3E
$GNGSA,A,3,65,71,72,87,88,,,,,,,,1.1,0.7,0.8,2*32
$GNGSA,A,3,05,,,,,,,,,,,,1.1,0.7,0.8,4*3E
$GNVTG,167.0,T,167.0,M,2.6,N,4.8,K,A*35
$GNRMC,074535.00,A,4806.968913,N,01636.771566,E,2.6,167.0,051122,1.8,E,A,V*59
$GNGGA,074535.00,4806.968913,N,01636.771566,E,1,12,0.7,162.8,M,43.0,M,,*7C
$GPGSV,3,1,10,01,45,153,40,03,73,054,39,04,62,205,34,06,17,313,35,1*6F
$GPGSV,3,2,10,09,26,222,41,17,33,255,38,19,30,292,33,21,24,151,44,1*63
$GPGSV,3,3,10,22,15,047,25,31,27,057,29,1*6B
$GLGSV,2,1,07,73,17,074,26,65,30,254,31,88,37,319,34,87,66,239,32,1*76
$GLGSV,2,2,07,71,37,047,27,72,73,320,32,74,03,115,,1*4F
$GBGSV,4,1,14,30,28,195,37,29,47,265,35,23,18,085,23,20,62,268,36,1*72
$GBGSV,4,2,14,19,13,255,27,16,21,040,26,09,42,059,21,06,28,046,23,1*73
$GBGSV,4,3,14,05,22,127,25,02,06,106,,25,11,037,,32,55,061,,1*74
$GBGSV,4,4,14,35,18,317,,37,07,133,,1*7B
$GNGSA,A,3,01,03,04,06,09,19,21,22,31,,,,1.1,0.7,0.8,1*3E
$GNGSA,A,3,65,71,72,87,88,,,,,,,,1.1,0.7,0.8,2*32
$GNGSA,A,3,05,,,,,,,,,,,,1.1,0.7,0.8,4*3E
$GNVTG,165.4,T,165.4,M,2.9,N,5.3,K,A*30
$GNRMC,074536.00,A,4806.968119,N,01636.772038,E,2.9,165.4,051122,1.8,E,A,V*5C
$GNGGA,074536.00,4806.968119,N,01636.772038,E,1,12,0.7,162.9,M,43.0,M,,*71
$GPGSV,3,1,10,01,45,153,40,03,73,054,38,04,62,205,32,06,17,313,30,1*6D
$GPGSV,3,2,10,09,26,222,39,17,33,255,40,19,30,292,30,21,24,151,42,1*66
$GPGSV,3,3,10,22,15,047,24,31,27,057,30,1*62
$GLGSV,2,1,07,74,03,115,17,73,17,074,25,65,30,254,35,88,37,319,34,1*74
$GLGSV,2,2,07,87,66,239,32,71,37,047,25,72,73,320,32,1*4E
$GBGSV,4,1,14,30,28,195,34,29,47,265,35,23,18,085,23,20,62,268,35,1*72
$GBGSV,4,2,14,19,13,255,27,16,21,040,26,09,42,059,21,06,28,046,23,1*73
$GBGSV,4,3,14,05,22,127,30,02,06,106,,25,11,037,,32,55,061,,1*70
$GBGSV,4,4,14,35,18,317,,37,07,133,,1*7B
$GNGSA,A,3,01,03,04,06,09,19,21,22,31,,,,1.1,0.7,0.8,1*3E
$GNGSA,A,3,65,71,72,87,88,,,,,,,,1.1,0.7,0.8,2*32
$GNGSA,A,3,05,,,,,,,,,,,,1.1,0.7,0.8,4*3E
$GNVTG,160.5,T,160.5,M,2.6,N,4.8,K,A*35
$GNRMC,074537.00,A,4806.967447,N,01636.772444,E,2.6,160.5,051122,1.8,E,A,V*58
$GNGGA,074537.00,4806.967447,N,01636.772444,E,1,12,0.7,162.6,M,43.0,M,,*71
$GPGSV,3,1,10,01,45,153,40,03,73,054,39,04,62,205,30,06,17,313,28,1*67
$GPGSV,3,2,10,09,26,222,40,17,33,255,38,19,30,292,34,21,24,151,44,1*65
$GPGSV,3,3,10,22,15,047,28,31,27,057,29,1*66
$GLGSV,2,1,07,74,03,115,25,73,17,074,25,65,30,254,37,88,37,319,34,1*77
$GLGSV,2,2,07,87,66,239,32,71,37,047,30,72,73,320,31,1*49
$GBGSV,4,1,14,30,28,195,37,29,47,265,35,23,18,085,23,20,62,268,36,1*72
$GBGSV,4,2,14,19,13,255,27,16,21,040,26,09,42,059,21,06,28,046,23,1*73
$GBGSV,4,3,14,05,22,127,33,02,06,106,,25,11,037,,32,55,061,,1*73
$GBGSV,4,4,14,35,18,317,,37,07,133,,1*7B
$GNGSA,A,3,01,03,04,06,09,19,21,22,31,,,,1.1,0.7,0.8,1*3E
$GNGSA,A,3,65,71,72,87,88,,,,,,,,1.1,0.7,0.8,2*32
$GNGSA,A,3,05,,,,,,,,,,,,1.1,0.7,0.8,4*3E
$GNVTG,166.0,T,166.0,M,2.6,N,4.8,K,A*35
$GNRMC,074538.00,A,4806.966744,N,01636.772895,E,2.6,166.0,051122,1.8,E,A,V*55
$GNGGA,074538.00,4806.966744,N,01636.772895,E,1,12,0.7,162.3,M,43.0,M,,*7A
$GPGSV,3,1,10,01,45,153,39,03,73,054,39,04,62,205,29,06,17,313,27,1*6E
$GPGSV,3,2,10,09,26,222,39,17,33,255,39,19,30,292,34,21,24,151,44,1*6A
$GPGSV,3,3,10,22,15,047,25,31,27,057,,1*60
$GLGSV,2,1,07,74,03,115,23,73,17,074,26,65,30,254,37,88,37,319,34,1*72
$GLGSV,2,2,07,87,66,239,33,71,37,047,27,72,73,320,32,1*4D
$GBGSV,4,1,14,30,28,195,31,29,47,265,35,23,18,085,23,20,62,268,35,1*77
$GBGSV,4,2,14,19,13,255,27,16,21,040,26,09,42,059,21,06,28,046,23,1*73
$GBGSV,4,3,14,05,22,127,33,02,06,106,,25,11,037,,32,55,061,,1*73
$GBGSV,4,4,14,35,18,317,,37,07,133,,1*7B
$GNGSA,A,3,01,03,04,06,09,19,21,22,31,,,,1.1,0.7,0.8,1*3E
$GNGSA,A,3,65,71,72,87,88,,,,,,,,1.1,0.7,0.8,2*32
$GNGSA,A,3,05,,,,,,,,,,,,1.1,0.7,0.8,4*3E
$GNVTG,159.3,T,159.3,M,2.8,N,5.1,K,A*33
$GNRMC,074539.00,A,4806.965966,N,01636.773482,E,2.8,159.3,051122,1.8,E,A,V*53
$GNGGA,074539.00,4806.965966,N,01636.773482,E,1,12,0.7,162.1,M,43.0,M,,*7F
$GPGSV,3,1,10,01,45,153,40,03,73,054,40,04,62,205,31,06,17,313,28,1*68
$GPGSV,3,2,10,09,26,222,38,17,33,255,41,19,30,292,33,21,24,151,43,1*64
$GPGSV,3,3,10,22,15,047,24,31,27,057,,1*61
$GLGSV,2,1,07,74,03,115,26,73,17,074,26,65,30,254,37,88,37,319,34,1*77
$GLGSV,2,2,07,87,66,239,35,71,37,047,28,72,73,320,32,1*44
$GBGSV,4,1,14,30,28,195,38,29,47,265,35,23,18,085,23,20,62,268,33,1*78
$GBGSV,4,2,14,19,13,255,27,16,21,040,26,09,42,059,21,06,28,046,23,1*73
$GBGSV,4,3,14,05,22,127,31,02,06,106,,25,11,037,,32,55,061,,1*71
$GBGSV,4,4,14,35,18,317,,37,07,133,,1*7B
$GNGSA,A,3,01,03,04,06,09,19,21,22,31,,,,1.1,0.7,0.8,1*3E
$GNGSA,A,3,65,71,72,87,88,,,,,,,,1.1,0.7,0.8,2*32
$GNGSA,A,3,05,,,,,,,,,,,,1.1,0.7,0.8,4*3E
$GNVTG,156.5,T,156.5,M,2.6,N,4.8,K,A*35
$GNRMC,074540.00,A,4806.965300,N,01636.774109,E,2.6,156.5,051122,1.8,E,A,V*51
$GNGGA,074540.00,4806.965300,N,01636.774109,E,1,12,0.7,162.1,M,43.0,M,,*7A
$GPGSV,3,1,10,01,45,153,36,03,73,054,37,04,62,205,29,06,17,313,27,1*6F
$GPGSV,3,2,10,09,26,222,34,17,33,255,38,19,30,292,32,21,24,151,40,1*64
$GPGSV,3,3,10,22,15,047,24,31,27,057,29,1*6A
$GLGSV,2,1,07,74,03,115,24,73,17,074,26,65,30,254,38,88,37,319,35,1*7B
$GLGSV,2,2,07,87,66,239,32,71,37,047,23,72,73,320,29,1*42
$GBGSV,4,1,14,30,28,195,35,29,47,265,35,23,18,085,23,20,62,268,30,1*76
$GBGSV,4,2,14,19,13,255,27,16,21,040,26,09,42,059,21,06,28,046,23,1*73
$GBGSV,4,3,14,05,22,127,33,02,06,106,,25,11,037,,32,55,061,,1*73
$GBGSV,4,4,14,35,18,317,,37,07,133,,1*7B
$GNGSA,A,3,01,03,04,06,09,19,21,22,31,,,,1.1,0.7,0.8,1*3E
$GNGSA,A,3,65,71,72,87,88,,,,,,,,1.1,0.7,0.8,2*32
$GNGSA,A,3,05,,,,,,,,,,,,1.1,0.7,0.8,4*3E
$GNVTG,138.1,T,138.1,M,2.6,N,4.8,K,A*35
$GNRMC,074541.00,A,4806.964793,N,01636.774829,E,2.6,138.1,051122,1.8,E,A,V*58
$GNGGA,074541.00,4806.964793,N,01636.774829,E,1,12,0.7,161.6,M,43.0,M,,*7B
$GPGSV,3,1,10,01,45,153,38,03,73,054,36,04,62,205,33,06,17,313,24,1*68
$GPGSV,3,2,10,09,26,222,34,17,33,255,36,19,30,292,37,21,24,151,40,1*6F
$GPGSV,3,3,10,22,15,047,24,31,27,057,31,1*63
$GLGSV,2,1,07,74,03,115,25,73,17,074,27,65,30,254,36,88,37,319,30,1*70
$GLGSV,2,2,07,87,66,239,29,71,37,047,25,72,73,320,30,1*46
$GBGSV,4,1,14,30,28,195,34,29,47,265,35,23,18,085,23,20,62,268,33,1*74
$GBGSV,4,2,14,19,13,255,27,16,21,040,26,09,42,059,29,06,28,046,23,1*7B
$GBGSV,4,3,14,05,22,127,34,02,06,106,,25,11,037,,32,55,061,,1*74
$GBGSV,4,4,14,35,18,317,,37,07,133,,1*7B
$GNGSA,A,3,01,03,04,06,09,19,21,22,,,,,1.1,0.8,0.8,1*33
$GNGSA,A,3,65,71,72,87,88,,,,,,,,1.1,0.8,0.8,2*3D
$GNGSA,A,3,05,,,,,,,,,,,,1.1,0.8,0.8,4*31
$GNVTG,150.0,T,150.0,M,2.6,N,4.8,K,A*35
$GNRMC,074542.00,A,4806.964124,N,01636.775412,E,2.6,150.0,051122,1.8,E,A,V*5B
$GNGGA,074542.00,4806.964124,N,01636.775412,E,1,12,0.8,161.3,M,43.0,M,,*7D
$GPGSV,3,1,10,01,45,153,36,03,73,054,36,04,62,205,32,06,17,313,23,1*60
$GPGSV,3,2,10,09,26,222,36,17,33,255,37,19,30,292,36,21,24,151,36,1*6C
$GPGSV,3,3,10,22,15,047,22,31,27,057,32,1*66
$GLGSV,2,1,07,74,03,115,23,73,17,074,27,65,30,254,36,88,37,319,29,1*7E
$GLGSV,2,2,07,87,66,239,31,71,37,047,27,72,73,320,27,1*4B
$GBGSV,4,1,14,30,28,195,33,29,47,265,35,23,18,085,23,20,62,268,34,1*74
$GBGSV,4,2,14,19,13,255,27,16,21,040,26,09,42,059,33,06,28,046,23,1*70
$GBGSV,4,3,14,05,22,127,32,02,06,106,,25,11,037,,32,55,061,,1*72
$GBGSV,4,4,14,35,18,317,,37,07,133,,1*7B
$GNGSA,A,3,01,03,04,06,09,19,21,22,,,,,1.1,0.8,0.8,1*33
$GNGSA,A,3,65,71,72,87,88,,,,,,,,1.1,0.8,0.8,2*3D
$GNGSA,A,3,05,,,,,,,,,,,,1.1,0.8,0.8,4*31
$GNVTG,159.7,T,159.7,M,2.6,N,4.9,K,A*34
$GNRMC,074543.00,A,4806.963386,N,01636.775760,E,2.6,159.7,051122,1.8,E,A,V*5F
$GNGGA,074543.00,4806.963386,N,01636.775760,E,1,12,0.8,161.5,M,43.0,M,,*71
$GPGSV,3,1,10,01,45,153,36,03,73,054,35,04,62,205,37,06,17,313,23,1*66
$GPGSV,3,2,10,09,26,222,40,17,33,255,34,19,30,292,34,21,24,151,34,1*6E
$GPGSV,3,3,10,22,15,047,22,31,27,057,36,1*62
$GLGSV,2,1,07,74,03,115,26,73,17,074,30,65,30,254,34,88,37,319,29,1*7F
$GLGSV,2,2,07,87,66,239,31,71,37,047,35,72,73,320,29,1*46
$GBGSV,4,1,14,30,28,195,33,29,47,265,35,23,18,085,23,20,62,268,29,1*78
$GBGSV,4,2,14,19,13,255,27,16,21,040,26,09,42,059,31,06,28,046,23,1*72
$GBGSV,4,3,14,05,22,127,32,02,06,106,22,25,11,037,,32,55,061,,1*72
$GBGSV,4,4,14,35,18,317,,37,07,133,,1*7B
$GNGSA,A,3,01,03,04,06,09,19,21,22,31,,,,1.1,0.7,0.8,1*3E
$GNGSA,A,3,65,71,72,87,88,,,,,,,,1.1,0.7,0.8,2*32
$GNGSA,A,3,05,,,,,,,,,,,,1.1,0.7,0.8,4*3E
$GNVTG,143.4,T,143.4,M,2.7,N,5.0,K,A*3D
$GNRMC,074544.00,A,4806.962771,N,01636.776561,E,2.7,143.4,051122,1.8,E,A,V*5C
$GNGGA,074544.00,4806.962771,N,01636.776561,E,1,12,0.7,161.1,M,43.0,M,,*70
$GPGSV,3,1,10,01,45,153,35,03,73,054,39,04,62,205,36,06,17,313,23,1*68
$GPGSV,3,2,10,09,26,222,42,17,33,255,36,19,30,292,31,21,24,151,38,1*67
$GPGSV,3,3,10,22,15,047,26,31,27,057,35,1*65
$GLGSV,2,1,07,74,03,115,28,73,17,074,27,65,30,254,32,88,37,319,28,1*70
$GLGSV,2,2,07,87,66,239,32,71,37,047,39,72,73,320,29,1*49
$GBGSV,4,1,14,30,28,195,33,29,47,265,35,23,18,085,23,20,62,268,31,1*71
$GBGSV,4,2,14,19,13,255,27,16,21,040,26,09,42,059,28,06,28,046,23,1*7A
$GBGSV,4,3,14,05,22,127,31,02,06,106,22,25,11,037,,32,55,061,,1*71
$GBGSV,4,4,14,35,18,317,,37,07,133,,1*7B
$GNGSA,A,3,01,03,04,06,09,19,21,31,,,,,1.1,0.8,0.8,1*31
$GNGSA,A,3,65,71,72,87,88,,,,,,,,1.1,0.8,0.8,2*3D
$GNGSA,A,3,05,,,,,,,,,,,,1.1,0.8,0.8,4*31
$GNVTG,141.8,T,141.8,M,2.6,N,4.9,K,A*34
$GNRMC,074545.00,A,4806.962243,N,01636.777419,E,2.6,141.8,051122,1.8,E,A,V*59
$GNGGA,074545.00,4806.962243,N,01636.777419,E,1,12,0.8,161.2,M,43.0,M,,*76
$GPGSV,3,1,10,01,45,153,39,03,73,054,42,04,62,205,34,06,17,313,26,1*6F
$GPGSV,3,2,10,09,26,222,41,17,33,255,36,19,30,292,32,21,24,151,45,1*6D
$GPGSV,3,3,10,22,15,047,35,31,27,057,40,1*65
$GLGSV,2,1,07,74,03,115,29,73,17,074,29,65,30,254,33,88,37,319,31,1*76
$GLGSV,2,2,07,87,66,239,33,71,37,047,42,72,73,320,34,1*48
$GBGSV,4,1,14,30,28,195,35,29,47,265,35,23,18,085,23,20,62,268,31,1*77
$GBGSV,4,2,14,19,13,255,27,16,21,040,26,09,42,059,35,06,28,046,23,1*76
$GBGSV,4,3,14,05,22,127,35,02,06,106,22,25,11,037,,32,55,061,,1*75
$GBGSV,4,4,14,35,18,317,,37,07,133,,1*7B
$GNGSA,A,3,01,03,04,06,09,19,21,22,31,,,,1.1,0.7,0.8,1*3E
$GNGSA,A,3,65,71,72,87,88,,,,,,,,1.1,0.7,0.8,2*32
$GNGSA,A,3,05,,,,,,,,,,,,1.1,0.7,0.8,4*3E
$GNVTG,131.9,T,131.9,M,3.1,N,5.7,K,A*3D
$GNRMC,074546.00,A,4806.961737,N,01636.778588,E,3.1,131.9,051122,1.8,E,A,V*59
$GNGGA,074546.00,4806.961737,N,01636.778588,E,1,12,0.7,161.6,M,43.0,M,,*7D
$GPGSV,3,1,10,01,45,153,40,03,73,054,41,04,62,205,35,06,17,313,29,1*6C
$GPGSV,3,2,10,09,26,222,41,17,33,255,36,19,30,292,34,21,24,151,44,1*6A
$GPGSV,3,3,10,22,15,047,33,31,27,057,39,1*6D
$GLGSV,2,1,07,74,03,115,30,73,17,074,28,65,30,254,33,88,37,319,31,1*7F
$GLGSV,2,2,07,87,66,239,34,71,37,047,43,72,73,320,34,1*4E
$GBGSV,4,1,14,30,28,195,34,29,47,265,35,23,18,085,23,20,62,268,31,1*76
$GBGSV,4,2,14,19,13,255,27,16,21,040,26,09,42,059,34,06,28,046,23,1*77
$GBGSV,4,3,14,05,22,127,34,02,06,106,28,25,11,037,,32,55,061,,1*7E
$GBGSV,4,4,14,35,18,317,,37,07,133,,1*7B
$GNGSA,A,3,01,03,04,06,09,19,21,22,31,,,,1.0,0.7,0.8,1*3F
$GNGSA,A,3,65,71,72,87,88,,,,,,,,1.0,0.7,0.8,2*33
$GNGSA,A,3,02,05,,,,,,,,,,,1.0,0.7,0.8,4*3D
$GNVTG,131.2,T,131.2,M,2.7,N,5.0,K,A*3D
$GNRMC,074547.00,A,4806.961338,N,01636.779826,E,2.7,131.2,051122,1.8,E,A,V*57
$GNGGA,074547.00,4806.961338,N,01636.779826,E,1,12,0.7,161.1,M,43.0,M,,*78
$GPGSV,3,1,10,01,45,153,40,03,73,054,42,04,62,205,36,06,17,313,29,1*6C
$GPGSV,3,2,10,09,26,222,42,17,33,255,34,19,30,292,32,21,24,151,45,1*6C
$GPGSV,3,3,10,22,15,047,33,31,27,057,43,1*60
$GLGSV,2,1,07,74,03,115,31,73,17,074,28,65,30,254,33,88,37,319,28,1*76
$GLGSV,2,2,07,87,66,239,32,71,37,047,40,72,73,320,33,1*4C
$GBGSV,4,1,14,30,28,195,37,29,47,265,35,23,18,085,32,20,62,268,34,1*70
$GBGSV,4,2,14,19,13,255,27,16,21,040,43,09,42,059,31,06,28,046,39,1*7A
$GBGSV,4,3,14,05,22,127,34,02,06,106,28,25,11,037,,32,55,061,,1*7E
$GBGSV,4,4,14,35,18,317,,37,07,133,,1*7B
$GNGSA,A,3,01,03,04,06,09,19,21,22,31,,,,1.0,0.7,0.8,1*3F
$GNGSA,A,3,65,71,72,87,88,,,,,,,,1.0,0.7,0.8,2*33
$GNGSA,A,3,02,05,,,,,,,,,,,1.0,0.7,0.8,4*3D
$GNVTG,125.6,T,125.6,M,2.7,N,5.0,K,A*3D
$GNRMC,074548.00,A,4806.961034,N,01636.781082,E,2.7,125.6,051122,1.8,E,A,V*57
$GNGGA,074548.00,4806.961034,N,01636.781082,E,1,12,0.7,160.6,M,43.0,M,,*7F
$GPGSV,3,1,10,01,45,153,37,03,73,054,41,04,62,205,35,06,17,313,30,1*64
$GPGSV,3,2,10,09,26,222,41,17,33,255,34,19,30,292,33,21,24,151,42,1*69
$GPGSV,3,3,10,22,15,047,31,31,27,057,42,1*63
$GLGSV,2,1,07,74,03,115,29,73,17,074,27,65,30,254,33,88,37,319,32,1*7B
$GLGSV,2,2,07,87,66,239,31,71,37,047,40,72,73,320,33,1*4F
$GBGSV,4,1,14,30,28,195,36,29,47,265,35,23,18,085,28,20,62,268,35,1*7B
$GBGSV,4,2,14,19,13,255,36,16,21,040,40,09,42,059,31,06,28,046,37,1*77
$GBGSV,4,3,14,05,22,127,31,02,06,106,30,25,11,037,,32,55,061,,1*72
$GBGSV,4,4,14,35,18,317,,37,07,133,,1*7B
$GNGSA,A,3,01,03,04,06,09,19,21,22,31,,,,1.0,0.7,0.8,1*3F
$GNGSA,A,3,65,71,72,87,88,,,,,,,,1.0,0.7,0.8,2*33
$GNGSA,A,3,02,05,,,,,,,,,,,1.0,0.7,0.8,4*3D
$GNVTG,132.4,T,132.4,M,2.9,N,5.4,K,A*37
$GNRMC,074549.00,A,4806.960613,N,01636.782260,E,2.9,132.4,051122,1.8,E,A,V*53
$GNGGA,074549.00,4806.960613,N,01636.782260,E,1,12,0.7,160.0,M,43.0,M,,*77
$GPGSV,3,1,10,01,45,153,39,03,73,054,39,04,62,205,32,06,17,313,30,1*62
$GPGSV,3,2,10,09,26,222,41,17,33,255,35,19,30,292,32,21,24,151,42,1*69
$GPGSV,3,3,10,22,15,047,30,31,27,057,36,1*61
$GLGSV,2,1,07,74,03,115,27,73,17,074,24,65,30,254,34,88,37,319,31,1*72
$GLGSV,2,2,07,87,66,239,27,71,37,047,39,72,73,320,31,1*44
$GBGSV,4,1,14,30,28,195,31,29,47,265,41,23,18,085,29,20,62,268,29,1*73
$GBGSV,4,2,14,19,13,255,37,16,21,040,40,09,42,059,30,06,28,046,36,1*76
$GBGSV,4,3,14,05,22,127,35,02,06,106,30,25,11,037,,32,55,061,,1*76
$GBGSV,4,4,14,35,18,317,,37,07,133,,1*7B
$GNGSA,A,3,01,03,04,06,09,19,21,22,31,,,,1.0,0.7,0.8,1*3F
$GNGSA,A,3,65,71,72,87,88,,,,,,,,1.0,0.7,0.8,2*33
$GNGSA,A,3,02,05,,,,,,,,,,,1.0,0.7,0.8,4*3D
$GNVTG,130.1,T,130.1,M,2.7,N,5.0,K,A*3D
$GNRMC,074550.00,A,4806.960190,N,01636.783287,E,2.7,130.1,051122,1.8,E,A,V*56
$GNGGA,074550.00,4806.960190,N,01636.783287,E,1,12,0.7,159.7,M,43.0,M,,*76
$GPGSV,3,1,10,01,45,153,40,03,73,054,41,04,62,205,30,06,17,313,30,1*61
$GPGSV,3,2,10,09,26,222,42,17,33,255,37,19,30,292,33,21,24,151,43,1*68
$GPGSV,3,3,10,22,15,047,33,31,27,057,38,1*6C
$GLGSV,2,1,07,74,03,115,27,73,17,074,27,65,30,254,33,88,37,319,32,1*75
$GLGSV,2,2,07,87,66,239,30,71,37,047,40,72,73,320,34,1*49
$GBGSV,4,1,14,30,28,195,31,29,47,265,37,23,18,085,27,20,62,268,31,1*75
$GBGSV,4,2,14,19,13,255,37,16,21,040,43,09,42,059,30,06,28,046,37,1*74
$GBGSV,4,3,14,05,22,127,35,02,06,106,30,25,11,037,,32,55,061,,1*76
$GBGSV,4,4,14,35,18,317,,37,07,133,,1*7B
$GNGSA,A,3,01,03,04,06,09,19,21,22,31,,,,1.0,0.7,0.8,1*3F
$GNGSA,A,3,65,71,72,87,88,,,,,,,,1.0,0.7,0.8,2*33
$GNGSA,A,3,02,05,,,,,,,,,,,1.0,0.7,0.8,4*3D
$GNVTG,127.2,T,127.2,M,2.7,N,5.0,K,A*3D
$GNRMC,074551.00,A,4806.959876,N,01636.784401,E,2.7,127.2,051122,1.8,E,A,V*56
$GNGGA,074551.00,4806.959876,N,01636.784401,E,1,12,0.7,159.3,M,43.0,M,,*77
$GPGSV,3,1,10,01,45,153,40,03,73,054,40,04,62,205,33,06,17,313,32,1*61
$GPGSV,3,2,10,09,26,222,40,17,33,255,36,19,30,292,34,21,24,151,44,1*6B
$GPGSV,3,3,10,22,15,047,32,31,27,057,41,1*63
$GLGSV,2,1,07,74,03,115,25,73,17,074,25,65,30,254,32,88,37,319,30,1*76
$GLGSV,2,2,07,87,66,239,30,71,37,047,39,72,73,320,33,1*40
$GBGSV,4,1,14,30,28,195,31,29,47,265,36,23,18,085,36,20,62,268,34,1*71
$GBGSV,4,2,14,19,13,255,36,16,21,040,40,09,42,059,28,06,28,046,36,1*7E
$GBGSV,4,3,14,05,22,127,33,02,06,106,25,25,11,037,,32,55,061,,1*74
$GBGSV,4,4,14,35,18,317,,37,07,133,,1*7B
$GNGSA,A,3,01,03,04,06,09,19,21,22,31,,,,1.0,0.7,0.8,1*3F
$GNGSA,A,3,65,71,72,87,88,,,,,,,,1.0,0.7,0.8,2*33
$GNGSA,A,3,02,05,,,,,,,,,,,1.0,0.7,0.8,4*3D
$GNVTG,131.3,T,131.3,M,2.7,N,5.0,K,A*3D
$GNRMC,074552.00,A,4806.959524,N,01636.785579,E,2.7,131.3,051122,1.8,E,A,V*56
$GNGGA,074552.00,4806.959524,N,01636.785579,E,1,12,0.7,159.1,M,43.0,M,,*73
$GPGSV,3,1,10,01,45,153,38,03,73,054,39,04,62,205,34,06,17,313,34,1*61
$GPGSV,3,2,10,09,26,222,41,17,33,255,35,19,30,292,33,21,24,151,40,1*6A
$GPGSV,3,3,10,22,15,047,29,31,27,057,41,1*69
$GLGSV,2,1,07,74,03,115,28,73,17,074,22,65,30,254,34,88,37,319,31,1*7B
$GLGSV,2,2,07,87,66,239,31,71,37,047,38,72,73,320,33,1*40
$GBGSV,4,1,14,30,28,195,28,29,47,265,34,23,18,085,37,20,62,268,32,1*7C
$GBGSV,4,2,14,19,13,255,34,16,21,040,37,09,42,059,29,06,28,046,30,1*7B
$GBGSV,4,3,14,05,22,127,33,02,06,106,25,25,11,037,,32,55,061,,1*74
$GBGSV,4,4,14,35,18,317,,37,07,133,,1*7B
$GNGSA,A,3,01,03,04,06,09,19,21,22,31,,,,1.0,0.7,0.8,1*3F
$GNGSA,A,3,65,71,72,87,88,,,,,,,,1.0,0.7,0.8,2*33
$GNGSA,A,3,02,05,,,,,,,,,,,1.0,0.7,0.8,4*3D
$GNVTG,128.9,T,128.9,M,2.7,N,5.0,K,A*3D
$GNRMC,074553.00,A,4806.959111,N,01636.786704,E,2.7,128.9,051122,1.8,E,A,V*5C
$GNGGA,074553.00,4806.959111,N,01636.786704,E,1,12,0.7,159.8,M,43.0,M,,*72
$GPGSV,3,1,10,01,45,153,36,03,73,054,42,04,62,205,33,06,17,313,34,1*64
$GPGSV,3,2,10,09,26,222,41,17,33,255,33,19,30,292,33,21,24,151,43,1*6F
$GPGSV,3,3,10,22,15,047,28,31,27,057,39,1*67
$GLGSV,2,1,07,74,03,115,27,73,17,074,26,65,30,254,35,88,37,319,33,1*73
$GLGSV,2,2,07,87,66,239,31,71,37,047,42,72,73,320,32,1*4C
$GBGSV,4,1,14,30,28,195,30,29,47,265,35,23,18,085,36,20,62,268,31,1*76
$GBGSV,4,2,14,19,13,255,32,16,21,040,33,09,42,059,34,06,28,046,36,1*73
$GBGSV,4,3,14,05,22,127,33,02,06,106,25,25,11,037,,32,55,061,,1*74
$GBGSV,4,4,14,35,18,317,,37,07,133,,1*7B
$GNGSA,A,3,01,03,04,06,09,19,21,22,31,,,,1.0,0.7,0.8,1*3F
$GNGSA,A,3,65,71,72,87,88,,,,,,,,1.0,0.7,0.8,2*33
$GNGSA,A,3,02,05,,,,,,,,,,,1.0,0.7,0.8,4*3D
$GNVTG,122.8,T,122.8,M,2.6,N,4.8,K,A*35
$GNRMC,074554.00,A,4806.958773,N,01636.787829,E,2.6,122.8,051122,1.8,E,A,V*53
$GNGGA,074554.00,4806.958773,N,01636.787829,E,1,12,0.7,159.4,M,43.0,M,,*7B
$GPGSV,3,1,10,01,45,153,38,03,73,054,40,04,62,205,33,06,17,313,33,1*6F
$GPGSV,3,2,10,09,26,222,41,17,33,255,35,19,30,292,34,21,24,151,42,1*6F
