$GPGSV,3,1,10,01,14,270,,08,67,286,,10,58,063,,14,04,331,,1*6A
$GPGSV,3,2,10,16,12,191,,21,45,279,,22,11,144,,23,26,049,,1*6E
$GPGSV,3,3,10,27,64,153,,32,25,127,,1*67
$GLGSV,3,1,10,66,44,153,,82,21,300,,73,04,354,,79,14,250,,1*78
$GLGSV,3,2,10,65,47,054,,88,42,088,,87,01,104,,81,65,341,,1*78
$GLGSV,3,3,10,67,02,184,,72,08,022,,1*7A
$GAGSV,3,1,09,01,04,194,,07,33,068,,08,04,023,,12,29,279,,7*71
$GAGSV,3,2,09,24,28,298,,25,00,000,,26,40,081,,31,30,241,,7*7C
$GAGSV,3,3,09,33,77,341,,7*4C
$GBGSV,3,1,12,02,06,104,,05,21,125,,06,15,080,,09,11,091,,1*7D
$GBGSV,3,2,12,13,10,063,,16,16,074,,19,26,185,,20,59,125,,1*79
$GBGSV,3,3,12,24,06,327,,26,09,284,,29,83,097,,30,27,115,,1*7D
$GPGSV,3,1,10,01,14,270,,08,67,286,,10,58,063,,14,04,331,,1*6A
$GPGSV,3,2,10,16,12,191,,21,45,279,,22,11,144,,23,26,049,,1*6E
$GPGSV,3,3,10,27,64,153,,32,25,127,,1*67
$GLGSV,3,1,10,81,65,341,17,66,44,153,,82,21,300,,73,04,354,,1*7E
$GLGSV,3,2,10,79,14,250,,65,47,054,,88,42,088,,87,01,104,,1*78
$GLGSV,3,3,10,67,02,184,,72,08,022,,1*7A
$GAGSV,3,1,09,01,04,194,,07,33,068,,08,04,023,,12,29,279,,7*71
$GAGSV,3,2,09,24,28,298,,25,00,000,,26,40,081,,31,30,241,,7*7C
$GAGSV,3,3,09,33,77,341,,7*4C
$GBGSV,3,1,12,02,06,104,,05,21,125,,06,15,080,,09,11,091,,1*7D
$GBGSV,3,2,12,13,10,063,,16,16,074,,19,26,185,,20,59,125,,1*79
$GBGSV,3,3,12,24,06,327,,26,09,284,,29,83,097,,30,27,115,,1*7D
$GPGSA,A,1,,,,,,,,,,,,,,,,*32
$GPVTG,,T,,M,,N,,K,N*2C
$GPRMC,,V,,,,,,,,,,N,V*29
$GPGGA,,,,,,0,,,,,,,,*66
$GPGSV,3,1,10,27,64,153,18,01,14,270,,08,67,286,,10,58,063,,1*63
$GPGSV,3,2,10,14,04,331,,16,12,191,,21,45,279,,22,11,144,,1*66
$GPGSV,3,3,10,23,26,049,,32,25,127,,1*6F
$GLGSV,3,1,10,81,65,341,15,66,44,153,,82,21,300,,73,04,354,,1*7C
$GLGSV,3,2,10,79,14,250,,65,47,054,,88,42,088,,87,01,104,,1*78
$GLGSV,3,3,10,67,02,184,,72,08,022,,1*7A
$GAGSV,3,1,09,01,04,194,,07,33,068,,08,04,023,,12,29,279,,7*71
$GAGSV,3,2,09,24,28,298,,25,00,000,,26,40,081,,31,30,241,,7*7C
$GAGSV,3,3,09,33,77,341,,7*4C
$GBGSV,3,1,12,02,06,104,,05,21,125,,06,15,080,,09,11,091,,1*7D
$GBGSV,3,2,12,13,10,063,,16,16,074,,19,26,185,,20,59,125,,1*79
$GBGSV,3,3,12,24,06,327,,26,09,284,,29,83,097,,30,27,115,,1*7D
$GPGSA,A,1,,,,,,,,,,,,,,,,*32
$GPVTG,,T,,M,,N,,K,N*2C
$GPRMC,,V,,,,,,,,,,N,V*29
$GPGGA,,,,,,0,,,,,,,,*66
$GPGSV,3,1,10,27,64,153,18,01,14,270,,08,67,286,,10,58,063,,1*63
$GPGSV,3,2,10,14,04,331,,16,12,191,,21,45,279,,22,11,144,,1*66
$GPGSV,3,3,10,23,26,049,,32,25,127,,1*6F
$GLGSV,3,1,10,81,65,341,16,66,44,153,,82,21,300,,73,04,354,,1*7F
$GLGSV,3,2,10,79,14,250,,65,47,054,,88,42,088,,87,01,104,,1*78
$GLGSV,3,3,10,67,02,184,,72,08,022,,1*7A
$GAGSV,3,1,09,01,04,194,,07,33,068,,08,04,023,,12,29,279,,7*71
$GAGSV,3,2,09,24,28,298,,25,00,000,,26,40,081,,31,30,241,,7*7C
$GAGSV,3,3,09,33,77,341,,7*4C
$GBGSV,3,1,12,02,06,104,,05,21,125,,06,15,080,,09,11,091,,1*7D
$GBGSV,3,2,12,13,10,063,,16,16,074,,19,26,185,,20,59,125,,1*79
$GBGSV,3,3,12,24,06,327,,26,09,284,,29,83,097,,30,27,115,,1*7D
$GPGSA,A,1,,,,,,,,,,,,,,,,*32
$GPVTG,,T,,M,,N,,K,N*2C
$GPRMC,,V,,,,,,,,,,N,V*29
$GPGGA,,,,,,0,,,,,,,,*66
$GPGSV,3,1,10,27,64,153,18,01,14,270,,08,67,286,,10,58,063,,1*63
$GPGSV,3,2,10,14,04,331,,16,12,191,,21,45,279,,22,11,144,,1*66
$GPGSV,3,3,10,23,26,049,,32,25,127,,1*6F
$GLGSV,3,1,10,81,65,341,16,66,44,153,,82,21,300,,73,04,354,,1*7F
$GLGSV,3,2,10,79,14,250,,65,47,054,,88,42,088,,87,01,104,,1*78
$GLGSV,3,3,10,67,02,184,,72,08,022,,1*7A
$GAGSV,3,1,09,26,40,081,17,01,04,194,,07,33,068,,08,04,023,,7*7A
$GAGSV,3,2,09,12,29,279,,24,28,298,,25,00,000,,31,30,241,,7*71
$GAGSV,3,3,09,33,77,341,,7*4C
$GBGSV,3,1,12,02,06,104,,05,21,125,,06,15,080,,09,11,091,,1*7D
$GBGSV,3,2,12,13,10,063,,16,16,074,,19,26,185,,20,59,125,,1*79
$GBGSV,3,3,12,24,06,327,,26,09,284,,29,83,097,,30,27,115,,1*7D
$GPGSA,A,1,,,,,,,,,,,,,,,,*32
$GPVTG,,T,,M,,N,,K,N*2C
$GPRMC,,V,,,,,,,,,,N,V*29
$GPGGA,,,,,,0,,,,,,,,*66
$GPGSV,3,1,10,27,64,153,18,01,14,270,,08,67,286,,10,58,063,,1*63
$GPGSV,3,2,10,14,04,331,,16,12,191,,21,45,279,,22,11,144,,1*66
$GPGSV,3,3,10,23,26,049,,32,25,127,,1*6F
$GLGSV,3,1,10,81,65,341,16,66,44,153,,82,21,300,,73,04,354,,1*7F
$GLGSV,3,2,10,79,14,250,,65,47,054,,88,42,088,,87,01,104,,1*78
$GLGSV,3,3,10,67,02,184,,72,08,022,,1*7A
$GAGSV,3,1,09,26,40,081,17,01,04,194,,07,33,068,,08,04,023,,7*7A
$GAGSV,3,2,09,12,29,279,,24,28,298,,25,00,000,,31,30,241,,7*71
$GAGSV,3,3,09,33,77,341,,7*4C
$GBGSV,3,1,12,02,06,104,,05,21,125,,06,15,080,,09,11,091,,1*7D
$GBGSV,3,2,12,13,10,063,,16,16,074,,19,26,185,,20,59,125,,1*79
$GBGSV,3,3,12,24,06,327,,26,09,284,,29,83,097,,30,27,115,,1*7D
$GPGSA,A,1,,,,,,,,,,,,,,,,*32
$GPVTG,,T,,M,,N,,K,N*2C
$GPRMC,,V,,,,,,,,,,N,V*29
$GPGGA,,,,,,0,,,,,,,,*66
$GPGSV,3,1,10,27,64,153,18,01,14,270,,08,67,286,,10,58,063,,1*63
$GPGSV,3,2,10,14,04,331,,16,12,191,,21,45,279,,22,11,144,,1*66
$GPGSV,3,3,10,23,26,049,,32,25,127,,1*6F
$GLGSV,3,1,10,81,65,341,17,66,44,153,,82,21,300,,73,04,354,,1*7E
$GLGSV,3,2,10,79,14,250,,65,47,054,,88,42,088,,87,01,104,,1*78
$GLGSV,3,3,10,67,02,184,,72,08,022,,1*7A
$GAGSV,3,1,09,26,40,081,17,01,04,194,,07,33,068,,08,04,023,,7*7A
$GAGSV,3,2,09,12,29,279,,24,28,298,,25,00,000,,31,30,241,,7*71
$GAGSV,3,3,09,33,77,341,,7*4C
$GBGSV,3,1,12,02,06,104,,05,21,125,,06,15,080,,09,11,091,,1*7D
$GBGSV,3,2,12,13,10,063,,16,16,074,,19,26,185,,20,59,125,,1*79
$GBGSV,3,3,12,24,06,327,,26,09,284,,29,83,097,,30,27,115,,1*7D
$GPGSA,A,1,,,,,,,,,,,,,,,,*32
$GPVTG,,T,,M,,N,,K,N*2C
$GPRMC,,V,,,,,,,,,,N,V*29
$GPGGA,,,,,,0,,,,,,,,*66
$GPGSV,3,1,10,08,67,286,13,27,64,153,18,01,14,270,,10,58,063,,1*61
$GPGSV,3,2,10,14,04,331,,16,12,191,,21,45,279,,22,11,144,,1*66
$GPGSV,3,3,10,23,26,049,,32,25,127,,1*6F
$GLGSV,3,1,10,81,65,341,17,66,44,153,,82,21,300,,73,04,354,,1*7E
$GLGSV,3,2,10,79,14,250,,65,47,054,,88,42,088,,87,01,104,,1*78
$GLGSV,3,3,10,67,02,184,,72,08,022,,1*7A
$GAGSV,3,1,09,26,40,081,17,01,04,194,,07,33,068,,08,04,023,,7*7A
$GAGSV,3,2,09,12,29,279,,24,28,298,,25,00,000,,31,30,241,,7*71
$GAGSV,3,3,09,33,77,341,,7*4C
$GBGSV,3,1,12,02,06,104,,05,21,125,,06,15,080,,09,11,091,,1*7D
$GBGSV,3,2,12,13,10,063,,16,16,074,,19,26,185,,20,59,125,,1*79
$GBGSV,3,3,12,24,06,327,,26,09,284,,29,83,097,,30,27,115,,1*7D
$GPGSA,A,1,,,,,,,,,,,,,,,,*32
$GPVTG,,T,,M,,N,,K,N*2C
$GPRMC,,V,,,,,,,,,,N,V*29
$GPGGA,,,,,,0,,,,,,,,*66
$GPGSV,3,1,10,08,67,286,13,27,64,153,18,01,14,270,,10,58,063,,1*61
$GPGSV,3,2,10,14,04,331,,16,12,191,,21,45,279,,22,11,144,,1*66
$GPGSV,3,3,10,23,26,049,,32,25,127,,1*6F
$GLGSV,3,1,10,81,65,341,17,66,44,153,,82,21,300,,73,04,354,,1*7E
$GLGSV,3,2,10,79,14,250,,65,47,054,,88,42,088,,87,01,104,,1*78
$GLGSV,3,3,10,67,02,184,,72,08,022,,1*7A
$GAGSV,3,1,09,26,40,081,17,01,04,194,,07,33,068,,08,04,023,,7*7A
$GAGSV,3,2,09,12,29,279,,24,28,298,,25,00,000,,31,30,241,,7*71
$GAGSV,3,3,09,33,77,341,,7*4C
$GBGSV,3,1,12,02,06,104,,05,21,125,,06,15,080,,09,11,091,,1*7D
$GBGSV,3,2,12,13,10,063,,16,16,074,,19,26,185,,20,59,125,,1*79
$GBGSV,3,3,12,24,06,327,,26,09,284,,29,83,097,,30,27,115,,1*7D
$GPGSA,A,1,,,,,,,,,,,,,,,,*32
$GPVTG,,T,,M,,N,,K,N*2C
$GPRMC,,V,,,,,,,,,,N,V*29
$GPGGA,,,,,,0,,,,,,,,*66
$GPGSV,3,1,10,08,67,286,13,27,64,153,17,01,14,270,,10,58,063,,1*6E
$GPGSV,3,2,10,14,04,331,,16,12,191,,21,45,279,,22,11,144,,1*66
$GPGSV,3,3,10,23,26,049,,32,25,127,,1*6F
$GLGSV,3,1,10,81,65,341,16,66,44,153,,82,21,300,,73,04,354,,1*7F
$GLGSV,3,2,10,79,14,250,,65,47,054,,88,42,088,,87,01,104,,1*78
$GLGSV,3,3,10,67,02,184,,72,08,022,,1*7A
$GAGSV,3,1,09,26,40,081,17,01,04,194,,07,33,068,,08,04,023,,7*7A
$GAGSV,3,2,09,12,29,279,,24,28,298,,25,00,000,,31,30,241,,7*71
$GAGSV,3,3,09,33,77,341,,7*4C
$GBGSV,3,1,12,20,59,125,15,02,06,104,,05,21,125,,06,15,080,,1*70
$GBGSV,3,2,12,09,11,091,,13,10,063,,16,16,074,,19,26,185,,1*70
$GBGSV,3,3,12,24,06,327,,26,09,284,,29,83,097,,30,27,115,,1*7D
$GPGSA,A,1,,,,,,,,,,,,,,,,*32
$GPVTG,,T,,M,,N,,K,N*2C
$GPRMC,,V,,,,,,,,,,N,V*29
$GPGGA,,,,,,0,,,,,,,,*66
$GPGSV,3,1,10,08,67,286,13,27,64,153,17,01,14,270,,10,58,063,,1*6E
$GPGSV,3,2,10,14,04,331,,16,12,191,,21,45,279,,22,11,144,,1*66
$GPGSV,3,3,10,23,26,049,,32,25,127,,1*6F
$GLGSV,3,1,10,81,65,341,18,66,44,153,,82,21,300,,73,04,354,,1*71
$GLGSV,3,2,10,79,14,250,,65,47,054,,88,42,088,,87,01,104,,1*78
$GLGSV,3,3,10,67,02,184,,72,08,022,,1*7A
$GAGSV,3,1,09,26,40,081,17,01,04,194,,07,33,068,,08,04,023,,7*7A
$GAGSV,3,2,09,12,29,279,,24,28,298,,25,00,000,,31,30,241,,7*71
$GAGSV,3,3,09,33,77,341,,7*4C
$GBGSV,3,1,12,20,59,125,15,02,06,104,,05,21,125,,06,15,080,,1*70
$GBGSV,3,2,12,09,11,091,,13,10,063,,16,16,074,,19,26,185,,1*70
$GBGSV,3,3,12,24,06,327,,26,09,284,,29,83,097,,30,27,115,,1*7D
$GPGSA,A,1,,,,,,,,,,,,,,,,*32
$GPVTG,,T,,M,,N,,K,N*2C
$GPRMC,,V,,,,,,,,,,N,V*29
$GPGGA,,,,,,0,,,,,,,,*66
$GPGSV,3,1,10,08,67,286,13,27,64,153,17,01,14,270,,10,58,063,,1*6E
$GPGSV,3,2,10,14,04,331,,16,12,191,,21,45,279,,22,11,144,,1*66
$GPGSV,3,3,10,23,26,049,,32,25,127,,1*6F
$GLGSV,3,1,10,81,65,341,16,66,44,153,,82,21,300,,73,04,354,,1*7F
$GLGSV,3,2,10,79,14,250,,65,47,054,,88,42,088,,87,01,104,,1*78
$GLGSV,3,3,10,67,02,184,,72,08,022,,1*7A
$GAGSV,3,1,09,26,40,081,17,01,04,194,,07,33,068,,08,04,023,,7*7A
$GAGSV,3,2,09,12,29,279,,24,28,298,,25,00,000,,31,30,241,,7*71
$GAGSV,3,3,09,33,77,341,,7*4C
$GBGSV,3,1,12,20,59,125,15,02,06,104,,05,21,125,,06,15,080,,1*70
$GBGSV,3,2,12,09,11,091,,13,10,063,,16,16,074,,19,26,185,,1*70
$GBGSV,3,3,12,24,06,327,,26,09,284,,29,83,097,,30,27,115,,1*7D
$GPGSA,A,1,,,,,,,,,,,,,,,,*32
$GPVTG,,T,,M,,N,,K,N*2C
$GPRMC,,V,,,,,,,,,,N,V*29
$GPGGA,,,,,,0,,,,,,,,*66
$GPGSV,3,1,10,01,14,270,,08,67,286,,10,58,063,,14,04,331,,1*6A
$GPGSV,3,2,10,16,12,191,,21,45,279,,22,11,144,,23,26,049,,1*6E
$GPGSV,3,3,10,27,64,153,,32,25,127,,1*67
$GLGSV,3,1,10,66,44,151,,82,21,300,,73,04,354,,79,14,250,,1*7A
$GLGSV,3,2,10,65,47,054,,88,42,088,,87,01,105,,81,65,343,,1*7B
$GLGSV,3,3,10,67,02,184,,72,08,022,,1*7A
$GAGSV,3,1,09,01,03,194,,07,33,068,,08,04,023,,12,29,279,,7*76
$GAGSV,3,2,09,24,28,298,,25,00,000,,26,40,081,,31,30,241,,7*7C
$GAGSV,3,3,09,33,77,341,,7*4C
$GBGSV,3,1,12,02,06,104,,05,21,125,,06,15,080,,09,12,091,,1*7E
$GBGSV,3,2,12,13,10,063,,16,16,074,,19,27,185,,20,59,125,,1*78
$GBGSV,3,3,12,24,06,327,,26,09,284,,29,83,097,,30,26,115,,1*7C
$GPGSV,3,1,10,32,25,127,16,01,14,270,,08,67,286,,10,58,063,,1*6F
$GPGSV,3,2,10,14,04,331,,16,12,191,,21,45,279,,22,11,144,,1*66
$GPGSV,3,3,10,23,26,049,,27,64,153,,1*6D
$GLGSV,3,1,10,66,44,151,,82,21,300,,73,04,354,,79,14,250,,1*7A
$GLGSV,3,2,10,65,47,054,,88,42,088,,87,01,105,,81,65,343,,1*7B
$GLGSV,3,3,10,67,02,184,,72,08,022,,1*7A
$GAGSV,3,1,09,01,03,194,,07,33,068,,08,04,023,,12,29,279,,7*76
$GAGSV,3,2,09,24,28,298,,25,00,000,,26,40,081,,31,30,241,,7*7C
$GAGSV,3,3,09,33,77,341,,7*4C
$GBGSV,3,1,12,02,06,104,,05,21,125,,06,15,080,,09,12,091,,1*7E
$GBGSV,3,2,12,13,10,063,,16,16,074,,19,27,185,,20,59,125,,1*78
$GBGSV,3,3,12,24,06,327,,26,09,284,,29,83,097,,30,26,115,,1*7C
$GPGSA,A,1,,,,,,,,,,,,,,,,*32
$GPVTG,,T,,M,,N,,K,N*2C
$GPRMC,,V,,,,,,,,,,N,V*29
$GPGGA,,,,,,0,,,,,,,,*66
$GPGSV,3,1,10,32,25,127,14,01,14,270,,08,67,286,,10,58,063,,1*6D
$GPGSV,3,2,10,14,04,331,,16,12,191,,21,45,279,,22,11,144,,1*66
$GPGSV,3,3,10,23,26,049,,27,64,153,,1*6D
$GLGSV,3,1,10,88,42,088,14,66,44,151,,82,21,300,,73,04,354,,1*75
$GLGSV,3,2,10,79,14,250,,65,47,054,,87,01,105,,81,65,343,,1*71
$GLGSV,3,3,10,67,02,184,,72,08,022,,1*7A
$GAGSV,3,1,09,26,40,081,16,01,03,194,,07,33,068,,08,04,023,,7*7C
$GAGSV,3,2,09,12,29,279,,24,28,298,,25,00,000,,31,30,241,,7*71
$GAGSV,3,3,09,33,77,341,,7*4C
$GBGSV,3,1,12,02,06,104,,05,21,125,,06,15,080,,09,12,091,,1*7E
$GBGSV,3,2,12,13,10,063,,16,16,074,,19,27,185,,20,59,125,,1*78
$GBGSV,3,3,12,24,06,327,,26,09,284,,29,83,097,,30,26,115,,1*7C
$GPGSV,3,1,10,32,25,127,14,01,14,270,,08,67,286,,10,58,063,,1*6D
$GPGSV,3,2,10,14,04,331,,16,12,191,,21,45,279,,22,11,144,,1*66
$GPGSV,3,3,10,23,26,049,,27,64,153,,1*6D
$GLGSV,3,1,10,88,42,088,14,66,44,151,,82,21,300,,73,04,354,,1*75
$GLGSV,3,2,10,79,14,250,,65,47,054,,87,01,105,,81,65,343,,1*71
$GLGSV,3,3,10,67,02,184,,72,08,022,,1*7A
$GAGSV,3,1,09,26,40,081,16,01,03,194,,07,33,068,,08,04,023,,7*7C
$GAGSV,3,2,09,12,29,279,,24,28,298,,25,00,000,,31,30,241,,7*71
$GAGSV,3,3,09,33,77,341,,7*4C
$GBGSV,3,1,12,02,06,104,,05,21,125,,06,15,080,,09,12,091,,1*7E
$GBGSV,3,2,12,13,10,063,,16,16,074,,19,27,185,,20,59,125,,1*78
$GBGSV,3,3,12,24,06,327,,26,09,284,,29,83,097,,30,26,115,,1*7C
$GPGSA,A,1,,,,,,,,,,,,,,,,*32
$GPVTG,,T,,M,,N,,K,N*2C
$GPRMC,,V,,,,,,,,,,N,V*29
$GPGGA,,,,,,0,,,,,,,,*66
$GPGSV,3,1,10,32,25,127,14,01,14,270,,08,67,286,,10,58,063,,1*6D
$GPGSV,3,2,10,14,04,331,,16,12,191,,21,45,279,,22,11,144,,1*66
$GPGSV,3,3,10,23,26,049,,27,64,153,,1*6D
$GLGSV,3,1,10,88,42,088,14,66,44,151,,82,21,300,,73,04,354,,1*75
$GLGSV,3,2,10,79,14,250,,65,47,054,,87,01,105,,81,65,343,,1*71
$GLGSV,3,3,10,67,02,184,,72,08,022,,1*7A
$GAGSV,3,1,09,26,40,081,16,01,03,194,,07,33,068,,08,04,023,,7*7C
$GAGSV,3,2,09,12,29,279,,24,28,298,,25,00,000,,31,30,241,,7*71
$GAGSV,3,3,09,33,77,341,,7*4C
$GBGSV,3,1,12,02,06,104,,05,21,125,,06,15,080,,09,12,091,,1*7E
$GBGSV,3,2,12,13,10,063,,16,16,074,,19,27,185,,20,59,125,,1*78
$GBGSV,3,3,12,24,06,327,,26,09,284,,29,83,097,,30,26,115,,1*7C
$GPGSA,A,1,,,,,,,,,,,,,,,,*32
$GPVTG,,T,,M,,N,,K,N*2C
$GPRMC,,V,,,,,,,,,,N,V*29
$GPGGA,,,,,,0,,,,,,,,*66
$GPGSV,3,1,10,08,67,286,11,32,25,127,15,01,14,270,,10,58,063,,1*6C
$GPGSV,3,2,10,14,04,331,,16,12,191,,21,45,279,,22,11,144,,1*66
$GPGSV,3,3,10,23,26,049,,27,64,153,,1*6D
$GLGSV,3,1,10,88,42,088,14,66,44,151,,82,21,300,,73,04,354,,1*75
$GLGSV,3,2,10,79,14,250,,65,47,054,,87,01,105,,81,65,343,,1*71
$GLGSV,3,3,10,67,02,184,,72,08,022,,1*7A
$GAGSV,3,1,09,26,40,081,16,01,03,194,,07,33,068,,08,04,023,,7*7C
$GAGSV,3,2,09,12,29,279,,24,28,298,,25,00,000,,31,30,241,,7*71
$GAGSV,3,3,09,33,77,341,,7*4C
$GBGSV,3,1,12,02,06,104,,05,21,125,,06,15,080,,09,12,091,,1*7E
$GBGSV,3,2,12,13,10,063,,16,16,074,,19,27,185,,20,59,125,,1*78
$GBGSV,3,3,12,24,06,327,,26,09,284,,29,83,097,,30,26,115,,1*7C
$GPGSA,A,1,,,,,,,,,,,,,,,,*32
$GPVTG,,T,,M,,N,,K,N*2C
$GPRMC,,V,,,,,,,,,,N,V*29
$GPGGA,,,,,,0,,,,,,,,*66
$GPGSV,3,1,10,08,67,286,11,32,25,127,15,01,14,270,,10,58,063,,1*6C
$GPGSV,3,2,10,14,04,331,,16,12,191,,21,45,279,,22,11,144,,1*66
$GPGSV,3,3,10,23,26,049,,27,64,153,,1*6D
$GLGSV,3,1,10,88,42,088,14,66,44,151,,82,21,300,,73,04,354,,1*75
$GLGSV,3,2,10,79,14,250,,65,47,054,,87,01,105,,81,65,343,,1*71
$GLGSV,3,3,10,67,02,184,,72,08,022,,1*7A
$GAGSV,3,1,09,26,40,081,16,01,03,194,,07,33,068,,08,04,023,,7*7C
$GAGSV,3,2,09,12,29,279,,24,28,298,,25,00,000,,31,30,241,,7*71
$GAGSV,3,3,09,33,77,341,,7*4C
$GBGSV,3,1,12,02,06,104,,05,21,125,,06,15,080,,09,12,091,,1*7E
$GBGSV,3,2,12,13,10,063,,16,16,074,,19,27,185,,20,59,125,,1*78
$GBGSV,3,3,12,24,06,327,,26,09,284,,29,83,097,,30,26,115,,1*7C
$GPGSA,A,1,,,,,,,,,,,,,,,,*32
$GPVTG,,T,,M,,N,,K,N*2C
$GPRMC,,V,,,,,,,,,,N,V*29
$GPGGA,,,,,,0,,,,,,,,*66
$GPGSV,3,1,10,08,67,286,11,27,64,153,16,32,25,127,17,01,14,270,,1*60
$GPGSV,3,2,10,10,58,063,,14,04,331,,16,12,191,,21,45,279,,1*6E
$GPGSV,3,3,10,22,11,144,,23,26,049,,1*6C
$GLGSV,3,1,10,88,42,088,16,66,44,151,,82,21,300,,73,04,354,,1*77
$GLGSV,3,2,10,79,14,250,,65,47,054,,87,01,105,,81,65,343,,1*71
$GLGSV,3,3,10,67,02,184,,72,08,022,,1*7A
$GAGSV,3,1,09,26,40,081,16,01,03,194,,07,33,068,,08,04,023,,7*7C
$GAGSV,3,2,09,12,29,279,,24,28,298,,25,00,000,,31,30,241,,7*71
$GAGSV,3,3,09,33,77,341,,7*4C
$GBGSV,3,1,12,02,06,104,,05,21,125,,06,15,080,,09,12,091,,1*7E
$GBGSV,3,2,12,13,10,063,,16,16,074,,19,27,185,,20,59,125,,1*78
$GBGSV,3,3,12,24,06,327,,26,09,284,,29,83,097,,30,26,115,,1*7C
$GPGSA,A,1,,,,,,,,,,,,,,,,*32
$GPVTG,,T,,M,,N,,K,N*2C
$GPRMC,,V,,,,,,,,,,N,V*29
$GPGGA,,,,,,0,,,,,,,,*66
$GPGSV,3,1,10,08,67,286,11,27,64,153,16,32,25,127,17,01,14,270,,1*60
$GPGSV,3,2,10,10,58,063,,14,04,331,,16,12,191,,21,45,279,,1*6E
$GPGSV,3,3,10,22,11,144,,23,26,049,,1*6C
$GLGSV,3,1,10,88,42,088,16,66,44,151,,82,21,300,,73,04,354,,1*77
$GLGSV,3,2,10,79,14,250,,65,47,054,,87,01,105,,81,65,343,,1*71
$GLGSV,3,3,10,67,02,184,,72,08,022,,1*7A
$GAGSV,3,1,09,26,40,081,17,01,03,194,,07,33,068,,08,04,023,,7*7D
$GAGSV,3,2,09,12,29,279,,24,28,298,,25,00,000,,31,30,241,,7*71
$GAGSV,3,3,09,33,77,341,,7*4C
$GBGSV,3,1,12,02,06,104,,05,21,125,,06,15,080,,09,12,091,,1*7E
$GBGSV,3,2,12,13,10,063,,16,16,074,,19,27,185,,20,59,125,,1*78
$GBGSV,3,3,12,24,06,327,,26,09,284,,29,83,097,,30,26,115,,1*7C
$GPGSA,A,1,,,,,,,,,,,,,,,,*32
$GPVTG,,T,,M,,N,,K,N*2C
$GPRMC,,V,,,,,,,,,,N,V*29
$GPGGA,,,,,,0,,,,,,,,*66
$GNGSA,A,3,08,27,32,,,,,,,,,,5.6,2.9,4.8,1*39
$GNGSA,A,3,88,,,,,,,,,,,,5.6,2.9,4.8,2*36
$GNGSA,A,3,26,,,,,,,,,,,,5.6,2.9,4.8,3*33
$GNVTG,,T,,M,,N,,K,A*3D
$GNRMC,135838.00,A,4813.961232,N,01442.829474,E,,,020622,,,A,V*3E
$GNGGA,135838.00,4813.961232,N,01442.829474,E,1,05,2.9,279.8,M,44.6,M,,*7E
$GPGSA,A,1,,,,,,,,,,,,,,,,*32
$GPVTG,,T,,M,,N,,K,N*2C
$GPRMC,,V,,,,,,,,,,N,V*29
$GPGGA,,,,,,0,,,,,,,,*66
$GPGSV,3,1,10,01,14,270,,08,67,286,,10,58,063,,14,04,331,,1*6A
$GPGSV,3,2,10,16,12,191,,21,45,279,,22,11,144,,23,26,049,,1*6E
$GPGSV,3,3,10,27,64,153,,32,26,127,,1*64
$GLGSV,3,1,10,66,44,151,,82,21,300,,73,04,354,,79,14,250,,1*7A
$GLGSV,3,2,10,65,47,054,,88,42,090,,87,01,105,,81,65,343,,1*72
$GLGSV,3,3,10,67,02,184,,72,08,022,,1*7A
$GAGSV,3,1,09,01,03,194,,07,33,068,,08,04,023,,12,29,279,,7*76
$GAGSV,3,2,09,24,28,298,,25,00,000,,26,40,081,,31,30,241,,7*7C
$GAGSV,3,3,09,33,77,341,,7*4C
$GBGSV,3,1,12,02,06,104,,05,21,125,,06,15,080,,09,12,091,,1*7E
$GBGSV,3,2,12,13,10,063,,16,16,074,,19,27,185,,20,59,125,,1*78
$GBGSV,3,3,12,24,06,327,,26,09,284,,29,83,098,,30,26,115,,1*73
$GPGSA,A,1,,,,,,,,,,,,,,,,*32
$GPVTG,,T,,M,,N,,K,N*2C
$GPRMC,,V,,,,,,,,,,N,V*29
$GPGGA,,,,,,0,,,,,,,,*66
$GPGSV,3,1,10,01,14,270,,08,67,286,,10,58,063,,14,04,331,,1*6A
$GPGSV,3,2,10,16,12,191,,21,45,279,,22,11,144,,23,26,049,,1*6E
$GPGSV,3,3,10,27,64,153,,32,26,127,,1*64
$GLGSV,3,1,10,66,44,151,,82,21,300,,73,04,354,,79,14,250,,1*7A
$GLGSV,3,2,10,65,47,054,,88,42,090,,87,01,105,,81,65,343,,1*72
$GLGSV,3,3,10,67,02,184,,72,08,022,,1*7A
$GAGSV,3,1,09,01,03,194,,07,33,068,,08,04,023,,12,29,279,,7*76
$GAGSV,3,2,09,24,28,298,,25,00,000,,26,40,081,,31,30,241,,7*7C
$GAGSV,3,3,09,33,77,341,,7*4C
$GBGSV,3,1,12,02,06,104,,05,21,125,,06,15,080,,09,12,091,,1*7E
$GBGSV,3,2,12,13,10,063,,16,16,074,,19,27,185,,20,59,125,,1*78
$GBGSV,3,3,12,24,06,327,,26,09,284,,29,83,098,,30,26,115,,1*73
$GPGSA,A,1,,,,,,,,,,,,,,,,*32
$GPVTG,,T,,M,,N,,K,N*2C
$GPRMC,,V,,,,,,,,,,N,V*29
$GPGGA,,,,,,0,,,,,,,,*66
$GPGSV,3,1,10,08,67,286,16,01,14,270,,10,58,063,,14,04,331,,1*6D
$GPGSV,3,2,10,16,12,191,,21,45,279,,22,11,144,,23,26,049,,1*6E
$GPGSV,3,3,10,27,64,153,,32,26,127,,1*64
$GLGSV,3,1,10,66,44,151,,82,21,300,,73,04,354,,79,14,250,,1*7A
$GLGSV,3,2,10,65,47,054,,88,42,090,,87,01,105,,81,65,343,,1*72
$GLGSV,3,3,10,67,02,184,,72,08,022,,1*7A
$GAGSV,3,1,09,01,03,194,,07,33,068,,08,04,023,,12,29,279,,7*76
$GAGSV,3,2,09,24,28,298,,25,00,000,,26,40,081,,31,30,241,,7*7C
$GAGSV,3,3,09,33,77,341,,7*4C
$GBGSV,3,1,12,02,06,104,,05,21,125,,06,15,080,,09,12,091,,1*7E
$GBGSV,3,2,12,13,10,063,,16,16,074,,19,27,185,,20,59,125,,1*78
$GBGSV,3,3,12,24,06,327,,26,09,284,,29,83,098,,30,26,115,,1*73
$GPGSA,A,1,,,,,,,,,,,,,,,,*32
$GPVTG,,T,,M,,N,,K,N*2C
$GPRMC,,V,,,,,,,,,,N,V*29
$GPGGA,,,,,,0,,,,,,,,*66
$GPGSV,3,1,10,08,67,286,15,32,26,127,15,01,14,270,,10,58,063,,1*6B
$GPGSV,3,2,10,14,04,331,,16,12,191,,21,45,279,,22,11,144,,1*66
$GPGSV,3,3,10,23,26,049,,27,64,153,,1*6D
$GLGSV,3,1,10,66,44,151,,82,21,300,,73,04,354,,79,14,250,,1*7A
$GLGSV,3,2,10,65,47,054,,88,42,090,,87,01,105,,81,65,343,,1*72
$GLGSV,3,3,10,67,02,184,,72,08,022,,1*7A
$GAGSV,3,1,09,26,40,081,20,01,03,194,,07,33,068,,08,04,023,,7*79
$GAGSV,3,2,09,12,29,279,,24,28,298,,25,00,000,,31,30,241,,7*71
$GAGSV,3,3,09,33,77,341,,7*4C
$GBGSV,3,1,12,02,06,104,,05,21,125,,06,15,080,,09,12,091,,1*7E
$GBGSV,3,2,12,13,10,063,,16,16,074,,19,27,185,,20,59,125,,1*78
$GBGSV,3,3,12,24,06,327,,26,09,284,,29,83,098,,30,26,115,,1*73
$GPGSA,A,1,,,,,,,,,,,,,,,,*32
$GPVTG,,T,,M,,N,,K,N*2C
$GPRMC,,V,,,,,,,,,,N,V*29
$GPGGA,,,,,,0,,,,,,,,*66
$GPGSV,3,1,10,08,67,286,15,32,26,127,16,01,14,270,,10,58,063,,1*68
$GPGSV,3,2,10,14,04,331,,16,12,191,,21,45,279,,22,11,144,,1*66
$GPGSV,3,3,10,23,26,049,,27,64,153,,1*6D
$GLGSV,3,1,10,66,44,151,,82,21,300,,73,04,354,,79,14,250,,1*7A
$GLGSV,3,2,10,65,47,054,,88,42,090,,87,01,105,,81,65,343,,1*72
$GLGSV,3,3,10,67,02,184,,72,08,022,,1*7A
$GAGSV,3,1,09,26,40,081,19,01,03,194,,07,33,068,,08,04,023,,7*73
$GAGSV,3,2,09,12,29,279,,24,28,298,,25,00,000,,31,30,241,,7*71
$GAGSV,3,3,09,33,77,341,,7*4C
$GBGSV,3,1,12,02,06,104,,05,21,125,,06,15,080,,09,12,091,,1*7E
$GBGSV,3,2,12,13,10,063,,16,16,074,,19,27,185,,20,59,125,,1*78
$GBGSV,3,3,12,24,06,327,,26,09,284,,29,83,098,,30,26,115,,1*73
$GPGSA,A,1,,,,,,,,,,,,,,,,*32
$GPVTG,,T,,M,,N,,K,N*2C
$GPRMC,,V,,,,,,,,,,N,V*29
$GPGGA,,,,,,0,,,,,,,,*66
$GPGSV,3,1,10,08,67,286,15,27,64,153,14,32,26,127,15,01,14,270,,1*67
$GPGSV,3,2,10,10,58,063,,14,04,331,,16,12,191,,21,45,279,,1*6E
$GPGSV,3,3,10,22,11,144,,23,26,049,,1*6C
$GLGSV,3,1,10,66,44,151,,82,21,300,,73,04,354,,79,14,250,,1*7A
$GLGSV,3,2,10,65,47,054,,88,42,090,,87,01,105,,81,65,343,,1*72
$GLGSV,3,3,10,67,02,184,,72,08,022,,1*7A
$GAGSV,3,1,09,26,40,081,18,01,03,194,,07,33,068,,08,04,023,,7*72
$GAGSV,3,2,09,12,29,279,,24,28,298,,25,00,000,,31,30,241,,7*71
$GAGSV,3,3,09,33,77,341,,7*4C
$GBGSV,3,1,12,02,06,104,,05,21,125,,06,15,080,,09,12,091,,1*7E
$GBGSV,3,2,12,13,10,063,,16,16,074,,19,27,185,,20,59,125,,1*78
$GBGSV,3,3,12,24,06,327,,26,09,284,,29,83,098,,30,26,115,,1*73
$GPGSA,A,1,,,,,,,,,,,,,,,,*32
$GPVTG,,T,,M,,N,,K,N*2C
$GPRMC,,V,,,,,,,,,,N,V*29
$GPGGA,,,,,,0,,,,,,,,*66
$GPGSV,3,1,10,08,67,286,15,27,64,153,15,32,26,127,15,01,14,270,,1*66
$GPGSV,3,2,10,10,58,063,,14,04,331,,16,12,191,,21,45,279,,1*6E
$GPGSV,3,3,10,22,11,144,,23,26,049,,1*6C
$GLGSV,3,1,10,66,44,151,,82,21,300,,73,04,354,,79,14,250,,1*7A
$GLGSV,3,2,10,65,47,054,,88,42,090,,87,01,105,,81,65,343,,1*72
$GLGSV,3,3,10,67,02,184,,72,08,022,,1*7A
$GAGSV,3,1,09,26,40,081,18,01,03,194,,07,33,068,,08,04,023,,7*72
$GAGSV,3,2,09,12,29,279,,24,28,298,,25,00,000,,31,30,241,,7*71
$GAGSV,3,3,09,33,77,341,,7*4C
$GBGSV,3,1,12,02,06,104,,05,21,125,,06,15,080,,09,12,091,,1*7E
$GBGSV,3,2,12,13,10,063,,16,16,074,,19,27,185,,20,59,125,,1*78
$GBGSV,3,3,12,24,06,327,,26,09,284,,29,83,098,,30,26,115,,1*73
$GPGSA,A,1,,,,,,,,,,,,,,,,*32
$GPVTG,,T,,M,,N,,K,N*2C
$GPRMC,,V,,,,,,,,,,N,V*29
$GPGGA,,,,,,0,,,,,,,,*66
$GPGSV,3,1,10,08,67,286,14,27,64,153,14,32,26,127,15,01,14,270,,1*66
$GPGSV,3,2,10,10,58,063,,14,04,331,,16,12,191,,21,45,279,,1*6E
$GPGSV,3,3,10,22,11,144,,23,26,049,,1*6C
$GLGSV,3,1,10,66,44,151,,82,21,300,,73,04,354,,79,14,250,,1*7A
$GLGSV,3,2,10,65,47,054,,88,42,090,,87,01,105,,81,65,343,,1*72
$GLGSV,3,3,10,67,02,184,,72,08,022,,1*7A
$GAGSV,3,1,09,26,40,081,17,01,03,194,,07,33,068,,08,04,023,,7*7D
$GAGSV,3,2,09,12,29,279,,24,28,298,,25,00,000,,31,30,241,,7*71
$GAGSV,3,3,09,33,77,341,,7*4C
$GBGSV,3,1,12,02,06,104,,05,21,125,,06,15,080,,09,12,091,,1*7E
$GBGSV,3,2,12,13,10,063,,16,16,074,,19,27,185,,20,59,125,,1*78
$GBGSV,3,3,12,24,06,327,,26,09,284,,29,83,098,,30,26,115,,1*73
$GPGSA,A,1,,,,,,,,,,,,,,,,*32
$GPVTG,,T,,M,,N,,K,N*2C
$GPRMC,,V,,,,,,,,,,N,V*29
$GPGGA,,,,,,0,,,,,,,,*66
$GPGSV,3,1,10,08,67,286,14,27,64,153,14,32,26,127,15,01,14,270,,1*66
$GPGSV,3,2,10,10,58,063,,14,04,331,,16,12,191,,21,45,279,,1*6E
$GPGSV,3,3,10,22,11,144,,23,26,049,,1*6C
$GLGSV,3,1,10,66,44,151,,82,21,300,,73,04,354,,79,14,250,,1*7A
$GLGSV,3,2,10,65,47,054,,88,42,090,,87,01,105,,81,65,343,,1*72
$GLGSV,3,3,10,67,02,184,,72,08,022,,1*7A
$GAGSV,3,1,09,26,40,081,17,01,03,194,,07,33,068,,08,04,023,,7*7D
$GAGSV,3,2,09,12,29,279,,24,28,298,,25,00,000,,31,30,241,,7*71
$GAGSV,3,3,09,33,77,341,,7*4C
$GBGSV,3,1,12,02,06,104,,05,21,125,,06,15,080,,09,12,091,,1*7E
$GBGSV,3,2,12,13,10,063,,16,16,074,,19,27,185,,20,59,125,,1*78
$GBGSV,3,3,12,24,06,327,,26,09,284,,29,83,098,,30,26,115,,1*73
$GPGSA,A,1,,,,,,,,,,,,,,,,*32
$GPVTG,,T,,M,,N,,K,N*2C
$GPRMC,,V,,,,,,,,,,N,V*29
$GPGGA,,,,,,0,,,,,,,,*66
$GPGSV,3,1,10,08,67,286,13,27,64,153,13,32,26,127,15,01,14,270,,1*66
$GPGSV,3,2,10,10,58,063,,14,04,331,,16,12,191,,21,45,279,,1*6E
$GPGSV,3,3,10,22,11,144,,23,26,049,,1*6C
$GLGSV,3,1,10,66,44,151,,82,21,300,,73,04,354,,79,14,250,,1*7A
$GLGSV,3,2,10,65,47,054,,88,42,090,,87,01,105,,81,65,343,,1*72
$GLGSV,3,3,10,67,02,184,,72,08,022,,1*7A
$GAGSV,3,1,09,26,40,081,17,01,03,194,,07,33,068,,08,04,023,,7*7D
$GAGSV,3,2,09,12,29,279,,24,28,298,,25,00,000,,31,30,241,,7*71
$GAGSV,3,3,09,33,77,341,,7*4C
$GBGSV,3,1,12,02,06,104,,05,21,125,,06,15,080,,09,12,091,,1*7E
$GBGSV,3,2,12,13,10,063,,16,16,074,,19,27,185,,20,59,125,,1*78
$GBGSV,3,3,12,24,06,327,,26,09,284,,29,83,098,,30,26,115,,1*73
$GPGSA,A,1,,,,,,,,,,,,,,,,*32
$GPVTG,,T,,M,,N,,K,N*2C
$GPRMC,,V,,,,,,,,,,N,V*29
$GPGGA,,,,,,0,,,,,,,,*66
$GPGSV,3,1,10,08,67,286,13,10,58,063,12,27,64,153,13,32,26,127,15,1*6D
$GPGSV,3,2,10,01,14,270,,14,04,331,,16,12,191,,21,45,279,,1*66
$GPGSV,3,3,10,22,11,144,,23,26,049,,1*6C
$GLGSV,3,1,10,88,42,090,13,66,44,151,,82,21,300,,73,04,354,,1*7B
$GLGSV,3,2,10,79,14,250,,65,47,054,,87,01,105,,81,65,343,,1*71
$GLGSV,3,3,10,67,02,184,,72,08,022,,1*7A
$GAGSV,3,1,09,26,40,081,16,01,03,194,,07,33,068,,08,04,023,,7*7C
$GAGSV,3,2,09,12,29,279,,24,28,298,,25,00,000,,31,30,241,,7*71
$GAGSV,3,3,09,33,77,341,,7*4C
$GBGSV,3,1,12,20,59,125,18,02,06,104,,05,21,125,,06,15,080,,1*7D
$GBGSV,3,2,12,09,12,091,,13,10,063,,16,16,074,,19,27,185,,1*72
$GBGSV,3,3,12,24,06,327,,26,09,284,,29,83,098,,30,26,115,,1*73
$GPGSA,A,1,,,,,,,,,,,,,,,,*32
$GPVTG,,T,,M,,N,,K,N*2C
$GPRMC,,V,,,,,,,,,,N,V*29
$GPGGA,,,,,,0,,,,,,,,*66
$GPGSV,3,1,10,08,67,286,13,10,58,063,12,27,64,153,13,32,26,127,15,1*6D
$GPGSV,3,2,10,01,14,270,,14,04,331,,16,12,191,,21,45,279,,1*66
$GPGSV,3,3,10,22,11,144,,23,26,049,,1*6C
$GLGSV,3,1,10,88,42,090,13,66,44,151,,82,21,300,,73,04,354,,1*7B
$GLGSV,3,2,10,79,14,250,,65,47,054,,87,01,105,,81,65,343,,1*71
$GLGSV,3,3,10,67,02,184,,72,08,022,,1*7A
$GAGSV,3,1,09,26,40,081,17,01,03,194,,07,33,068,,08,04,023,,7*7D
$GAGSV,3,2,09,12,29,279,,24,28,298,,25,00,000,,31,30,241,,7*71
$GAGSV,3,3,09,33,77,341,,7*4C
$GBGSV,3,1,12,20,59,125,18,02,06,104,,05,21,125,,06,15,080,,1*7D
$GBGSV,3,2,12,09,12,091,,13,10,063,,16,16,074,,19,27,185,,1*72
$GBGSV,3,3,12,24,06,327,,26,09,284,,29,83,098,,30,26,115,,1*73
$GNGSA,A,3,08,10,27,32,,,,,,,,,2.2,1.9,1.0,1*35
$GNGSA,A,3,88,,,,,,,,,,,,2.2,1.9,1.0,2*3B
$GNGSA,A,3,26,,,,,,,,,,,,2.2,1.9,1.0,3*3E
$GNVTG,,T,,M,,N,,K,A*3D
$GNRMC,135851.00,A,4813.963033,N,01442.831575,E,,,020622,,,A,V*39
$GNGGA,135851.00,4813.963033,N,01442.831575,E,1,06,1.9,283.6,M,44.6,M,,*72
$GPGSV,3,1,10,08,67,286,13,10,58,063,12,27,64,153,13,32,26,127,18,1*60
$GPGSV,3,2,10,01,14,270,,14,04,331,,16,12,191,,21,45,279,,1*66
$GPGSV,3,3,10,22,11,144,,23,26,049,,1*6C
$GLGSV,3,1,10,88,42,090,13,66,44,151,,82,21,300,,73,04,354,,1*7B
$GLGSV,3,2,10,79,14,250,,65,47,054,,87,01,105,,81,65,343,,1*71
$GLGSV,3,3,10,67,02,184,,72,08,022,,1*7A
$GAGSV,3,1,09,26,40,081,17,01,03,194,,07,33,068,,08,04,023,,7*7D
$GAGSV,3,2,09,12,29,279,,24,28,298,,25,00,000,,31,30,241,,7*71
$GAGSV,3,3,09,33,77,341,,7*4C
$GBGSV,3,1,12,20,59,125,18,02,06,104,,05,21,125,,06,15,080,,1*7D
$GBGSV,3,2,12,09,12,091,,13,10,063,,16,16,074,,19,27,185,,1*72
$GBGSV,3,3,12,24,06,327,,26,09,284,,29,83,098,,30,26,115,,1*73
$GNGSA,A,3,08,10,27,32,,,,,,,,,2.2,1.9,1.0,1*35
$GNGSA,A,3,88,,,,,,,,,,,,2.2,1.9,1.0,2*3B
$GNGSA,A,3,26,,,,,,,,,,,,2.2,1.9,1.0,3*3E
$GNVTG,,T,,M,,N,,K,A*3D
$GNRMC,135852.00,A,4813.962714,N,01442.831569,E,,,020622,,,A,V*34
$GNGGA,135852.00,4813.962714,N,01442.831569,E,1,06,1.9,275.5,M,44.6,M,,*75
$GPGSV,3,1,10,08,67,286,13,10,58,063,12,27,64,153,13,32,26,127,18,1*60
$GPGSV,3,2,10,01,14,270,,14,04,331,,16,12,191,,21,45,279,,1*66
$GPGSV,3,3,10,22,11,144,,23,26,049,,1*6C
$GLGSV,3,1,10,88,42,090,14,66,44,151,,82,21,300,,73,04,354,,1*7C
$GLGSV,3,2,10,79,14,250,,65,47,054,,87,01,105,,81,65,343,,1*71
$GLGSV,3,3,10,67,02,184,,72,08,022,,1*7A
$GAGSV,3,1,09,26,40,081,17,01,03,194,,07,33,068,,08,04,023,,7*7D
$GAGSV,3,2,09,12,29,279,,24,28,298,,25,00,000,,31,30,241,,7*71
$GAGSV,3,3,09,33,77,341,,7*4C
$GBGSV,3,1,12,20,59,125,18,02,06,104,,05,21,125,,06,15,080,,1*7D
$GBGSV,3,2,12,09,12,091,,13,10,063,,16,16,074,,19,27,185,,1*72
$GBGSV,3,3,12,24,06,327,,26,09,284,,29,83,098,,30,26,115,,1*73
$GNGSA,A,3,08,10,27,32,,,,,,,,,2.2,1.9,1.0,1*35
$GNGSA,A,3,88,,,,,,,,,,,,2.2,1.9,1.0,2*3B
$GNGSA,A,3,26,,,,,,,,,,,,2.2,1.9,1.0,3*3E
$GNVTG,,T,,M,,N,,K,A*3D
$GNRMC,135853.00,A,4813.962530,N,01442.831452,E,,,020622,,,A,V*38
$GNGGA,135853.00,4813.962530,N,01442.831452,E,1,06,1.9,281.5,M,44.6,M,,*72
$GPGSV,3,1,10,08,67,286,13,10,58,063,12,27,64,153,13,32,26,127,18,1*60
$GPGSV,3,2,10,01,14,270,,14,04,331,,16,12,191,,21,45,279,,1*66
$GPGSV,3,3,10,22,11,144,,23,26,049,,1*6C
$GLGSV,3,1,10,88,42,090,14,66,44,151,,82,21,300,,73,04,354,,1*7C
$GLGSV,3,2,10,79,14,250,,65,47,054,,87,01,105,,81,65,343,,1*71
$GLGSV,3,3,10,67,02,184,,72,08,022,,1*7A
$GAGSV,3,1,09,26,40,081,19,01,03,194,,07,33,068,,08,04,023,,7*73
$GAGSV,3,2,09,12,29,279,,24,28,298,,25,00,000,,31,30,241,,7*71
$GAGSV,3,3,09,33,77,341,,7*4C
$GBGSV,3,1,12,20,59,125,18,02,06,104,,05,21,125,,06,15,080,,1*7D
$GBGSV,3,2,12,09,12,091,,13,10,063,,16,16,074,,19,27,185,,1*72
$GBGSV,3,3,12,24,06,327,,26,09,284,,29,83,098,,30,26,115,,1*73
$GNGSA,A,3,08,10,27,32,,,,,,,,,2.2,1.9,1.0,1*35
$GNGSA,A,3,88,,,,,,,,,,,,2.2,1.9,1.0,2*3B
$GNGSA,A,3,26,,,,,,,,,,,,2.2,1.9,1.0,3*3E
$GNVTG,,T,,M,,N,,K,A*3D
$GNRMC,135854.00,A,4813.961993,N,01442.831367,E,,,020622,,,A,V*38
$GNGGA,135854.00,4813.961993,N,01442.831367,E,1,06,1.9,290.5,M,44.6,M,,*72
$GPGSV,3,1,10,08,67,286,13,10,58,063,12,27,64,153,14,32,26,127,17,1*68
$GPGSV,3,2,10,01,14,270,,14,04,331,,16,12,191,,21,45,279,,1*66
$GPGSV,3,3,10,22,11,144,,23,26,049,,1*6C
$GLGSV,3,1,10,65,47,054,14,88,42,090,14,66,44,151,,82,21,300,,1*7A
$GLGSV,3,2,10,73,04,354,,79,14,250,,87,01,105,,81,65,343,,1*72
$GLGSV,3,3,10,67,02,184,,72,08,022,,1*7A
$GAGSV,3,1,09,26,40,081,21,01,03,194,,07,33,068,,08,04,023,,7*78
$GAGSV,3,2,09,12,29,279,,24,28,298,,25,00,000,,31,30,241,,7*71
$GAGSV,3,3,09,33,77,341,,7*4C
$GBGSV,3,1,12,20,59,125,14,30,26,115,17,02,06,104,,05,21,125,,1*7F
$GBGSV,3,2,12,06,15,080,,09,12,091,,13,10,063,,16,16,074,,1*79
$GBGSV,3,3,12,19,27,185,,24,06,327,,26,09,284,,29,83,098,,1*70
$GNGSA,A,3,08,10,27,32,,,,,,,,,2.0,1.8,1.0,1*36
$GNGSA,A,3,65,88,,,,,,,,,,,2.0,1.8,1.0,2*3B
$GNGSA,A,3,26,,,,,,,,,,,,2.0,1.8,1.0,3*3D
$GNVTG,,T,,M,,N,,K,A*3D
$GNRMC,135855.00,A,4813.961884,N,01442.830885,E,,,020622,,,A,V*38
$GNGGA,135855.00,4813.961884,N,01442.830885,E,1,07,1.8,292.3,M,44.6,M,,*76
$GPGSV,3,1,10,08,67,286,13,10,58,063,12,27,64,153,14,32,26,127,19,1*66
$GPGSV,3,2,10,01,14,270,,14,04,331,,16,12,191,,21,45,279,,1*66
$GPGSV,3,3,10,22,11,144,,23,26,049,,1*6C
$GLGSV,3,1,10,65,47,054,14,88,42,090,14,66,44,151,,82,21,300,,1*7A
$GLGSV,3,2,10,73,04,354,,79,14,250,,87,01,105,,81,65,343,,1*72
$GLGSV,3,3,10,67,02,184,,72,08,022,,1*7A
$GAGSV,3,1,09,26,40,081,21,01,03,194,,07,33,068,,08,04,023,,7*78
$GAGSV,3,2,09,12,29,279,,24,28,298,,25,00,000,,31,30,241,,7*71
$GAGSV,3,3,09,33,77,341,,7*4C
$GBGSV,3,1,12,20,59,125,14,30,26,115,17,02,06,104,,05,21,125,,1*7F
$GBGSV,3,2,12,06,15,080,,09,12,091,,13,10,063,,16,16,074,,1*79
$GBGSV,3,3,12,19,27,185,,24,06,327,,26,09,284,,29,83,098,,1*70
$GNGSA,A,3,08,10,27,32,,,,,,,,,2.0,1.8,1.0,1*36
$GNGSA,A,3,65,88,,,,,,,,,,,2.0,1.8,1.0,2*3B
$GNGSA,A,3,26,,,,,,,,,,,,2.0,1.8,1.0,3*3D
$GNVTG,,T,,M,,N,,K,A*3D
$GNRMC,135856.00,A,4813.962045,N,01442.830438,E,,,020622,,,A,V*37
$GNGGA,135856.00,4813.962045,N,01442.830438,E,1,07,1.8,300.1,M,44.6,M,,*71
$GPGSV,3,1,10,08,67,286,13,10,58,063,12,27,64,153,14,32,26,127,18,1*67
$GPGSV,3,2,10,01,14,270,,14,04,331,,16,12,191,,21,45,279,,1*66
$GPGSV,3,3,10,22,11,144,,23,26,049,,1*6C
$GLGSV,3,1,10,65,47,054,13,88,42,090,14,66,44,151,,82,21,300,,1*7D
$GLGSV,3,2,10,73,04,354,,79,14,250,,87,01,105,,81,65,343,,1*72
$GLGSV,3,3,10,67,02,184,,72,08,022,,1*7A
$GAGSV,3,1,09,26,40,081,18,01,03,194,,07,33,068,,08,04,023,,7*72
$GAGSV,3,2,09,12,29,279,,24,28,298,,25,00,000,,31,30,241,,7*71
$GAGSV,3,3,09,33,77,341,,7*4C
$GBGSV,3,1,12,20,59,125,14,30,26,115,15,02,06,104,,05,21,125,,1*7D
$GBGSV,3,2,12,06,15,080,,09,12,091,,13,10,063,,16,16,074,,1*79
$GBGSV,3,3,12,19,27,185,,24,06,327,,26,09,284,,29,83,098,,1*70
$GNGSA,A,3,08,27,32,,,,,,,,,,2.2,2.0,1.0,1*3E
$GNGSA,A,3,65,88,,,,,,,,,,,2.2,2.0,1.0,2*32
$GNGSA,A,3,26,,,,,,,,,,,,2.2,2.0,1.0,3*34
$GNVTG,,T,,M,,N,,K,A*3D
$GNRMC,135857.00,A,4813.962124,N,01442.830136,E,,,020622,,,A,V*3B
$GNGGA,135857.00,4813.962124,N,01442.830136,E,1,06,2.0,297.8,M,44.6,M,,*71
$GPGSV,3,1,10,08,67,286,13,10,58,063,12,27,64,153,14,32,26,127,18,1*67
$GPGSV,3,2,10,01,14,270,,14,04,331,,16,12,191,,21,45,279,,1*66
$GPGSV,3,3,10,22,11,144,,23,26,049,,1*6C
$GLGSV,3,1,10,65,47,054,13,88,42,090,14,66,44,151,,82,21,300,,1*7D
$GLGSV,3,2,10,73,04,354,,79,14,250,,87,01,105,,81,65,343,,1*72
$GLGSV,3,3,10,67,02,184,,72,08,022,,1*7A
$GAGSV,3,1,09,26,40,081,20,01,03,194,,07,33,068,,08,04,023,,7*79
$GAGSV,3,2,09,12,29,279,,24,28,298,,25,00,000,,31,30,241,,7*71
$GAGSV,3,3,09,33,77,341,,7*4C
$GBGSV,3,1,12,20,59,125,14,30,26,115,16,02,06,104,,05,21,125,,1*7E
$GBGSV,3,2,12,06,15,080,,09,12,091,,13,10,063,,16,16,074,,1*79
$GBGSV,3,3,12,19,27,185,,24,06,327,,26,09,284,,29,83,098,,1*70
$GNGSA,A,3,08,27,32,,,,,,,,,,2.2,2.0,1.0,1*3E
$GNGSA,A,3,65,88,,,,,,,,,,,2.2,2.0,1.0,2*32
$GNGSA,A,3,26,,,,,,,,,,,,2.2,2.0,1.0,3*34
$GNVTG,,T,,M,,N,,K,A*3D
$GNRMC,135858.00,A,4813.962798,N,01442.830029,E,,,020622,,,A,V*3A
$GNGGA,135858.00,4813.962798,N,01442.830029,E,1,06,2.0,300.0,M,44.6,M,,*77
$GPGSV,3,1,10,08,67,286,14,10,58,063,12,27,64,153,14,32,26,127,18,1*60
$GPGSV,3,2,10,01,14,270,,14,04,331,,16,12,191,,21,45,279,,1*66
$GPGSV,3,3,10,22,11,144,,23,26,049,,1*6C
$GLGSV,3,1,10,65,47,054,13,88,42,090,16,66,44,151,,82,21,300,,1*7F
$GLGSV,3,2,10,73,04,354,,79,14,250,,87,01,105,,81,65,343,,1*72
$GLGSV,3,3,10,67,02,184,,72,08,022,,1*7A
$GAGSV,3,1,09,26,40,081,20,01,03,194,,07,33,068,,08,04,023,,7*79
$GAGSV,3,2,09,12,29,279,,24,28,298,,25,00,000,,31,30,241,,7*71
$GAGSV,3,3,09,33,77,341,,7*4C
$GBGSV,3,1,12,20,59,125,15,30,26,115,17,02,06,104,,05,21,125,,1*7E
$GBGSV,3,2,12,06,15,080,,09,12,091,,13,10,063,,16,16,074,,1*79
$GBGSV,3,3,12,19,27,185,,24,06,327,,26,09,284,,29,83,098,,1*70
$GNGSA,A,3,08,27,32,,,,,,,,,,2.2,2.0,1.0,1*3E
$GNGSA,A,3,65,88,,,,,,,,,,,2.2,2.0,1.0,2*32
$GNGSA,A,3,26,,,,,,,,,,,,2.2,2.0,1.0,3*34
$GNVTG,,T,,M,,N,,K,A*3D
$GNRMC,135859.00,A,4813.964321,N,01442.830353,E,,,020622,,,A,V*35
$GNGGA,135859.00,4813.964321,N,01442.830353,E,1,06,2.0,308.0,M,44.6,M,,*70
$GPGSV,3,1,10,08,67,286,14,10,58,063,12,27,64,153,13,32,26,127,19,1*66
$GPGSV,3,2,10,01,14,270,,14,04,331,,16,12,191,,21,45,279,,1*66
$GPGSV,3,3,10,22,11,144,,23,26,049,,1*6C
$GLGSV,3,1,10,65,47,054,13,88,42,090,18,66,44,151,,82,21,300,,1*71
$GLGSV,3,2,10,73,04,354,,79,14,250,,87,01,105,,81,65,343,,1*72
$GLGSV,3,3,10,67,02,184,,72,08,022,,1*7A
$GAGSV,3,1,09,26,40,081,19,01,03,194,,07,33,068,,08,04,023,,7*73
$GAGSV,3,2,09,12,29,279,,24,28,298,,25,00,000,,31,30,241,,7*71
$GAGSV,3,3,09,33,77,341,,7*4C
$GBGSV,3,1,12,20,59,125,18,30,26,115,18,02,06,104,,05,21,125,,1*7C
$GBGSV,3,2,12,06,15,080,,09,12,091,,13,10,063,,16,16,074,,1*79
$GBGSV,3,3,12,19,27,185,,24,06,327,,26,09,284,,29,83,098,,1*70
$GNGSA,A,3,08,27,32,,,,,,,,,,2.2,2.0,1.0,1*3E
$GNGSA,A,3,65,88,,,,,,,,,,,2.2,2.0,1.0,2*32
$GNGSA,A,3,26,,,,,,,,,,,,2.2,2.0,1.0,3*34
$GNVTG,,T,,M,,N,,K,A*3D
$GNRMC,135900.00,A,4813.965260,N,01442.829881,E,,,020622,,,A,V*31
$GNGGA,135900.00,4813.965260,N,01442.829881,E,1,06,2.0,314.5,M,44.6,M,,*7C
$GPGSV,3,1,10,08,67,286,14,10,58,063,12,27,64,153,13,32,26,127,19,1*66
$GPGSV,3,2,10,01,14,270,,14,04,331,,16,12,191,,21,45,279,,1*66
$GPGSV,3,3,10,22,11,144,,23,26,049,,1*6C
$GLGSV,3,1,10,65,47,054,13,88,42,090,18,66,44,151,,82,21,300,,1*71
$GLGSV,3,2,10,73,04,354,,79,14,250,,87,01,105,,81,65,343,,1*72
$GLGSV,3,3,10,67,02,184,,72,08,022,,1*7A
$GAGSV,3,1,09,26,40,081,19,01,03,194,,07,33,068,,08,04,023,,7*73
$GAGSV,3,2,09,12,29,279,,24,28,298,,25,00,000,,31,30,241,,7*71
$GAGSV,3,3,09,33,77,341,,7*4C
$GBGSV,3,1,12,20,59,125,18,30,26,115,18,02,06,104,,05,21,125,,1*7C
$GBGSV,3,2,12,06,15,080,,09,12,091,,13,10,063,,16,16,074,,1*79
$GBGSV,3,3,12,19,27,185,,24,06,327,,26,09,284,,29,83,098,,1*70
$GNGSA,A,3,08,27,32,,,,,,,,,,2.2,2.0,1.0,1*3E
$GNGSA,A,3,65,88,,,,,,,,,,,2.2,2.0,1.0,2*32
$GNGSA,A,3,26,,,,,,,,,,,,2.2,2.0,1.0,3*34
$GNVTG,,T,,M,,N,,K,A*3D
$GNRMC,135901.00,A,4813.965984,N,01442.829219,E,,,020622,,,A,V*3A
$GNGGA,135901.00,4813.965984,N,01442.829219,E,1,06,2.0,318.4,M,44.6,M,,*7A
$GPGSV,3,1,10,08,67,286,14,10,58,063,10,27,64,153,13,32,26,127,19,1*64
$GPGSV,3,2,10,01,14,270,,14,04,331,,16,12,191,,21,45,279,,1*66
$GPGSV,3,3,10,22,11,144,,23,26,049,,1*6C
$GLGSV,3,1,10,65,47,054,13,88,42,090,18,66,44,151,,82,21,300,,1*71
$GLGSV,3,2,10,73,04,354,,79,14,250,,87,01,105,,81,65,343,,1*72
$GLGSV,3,3,10,67,02,184,,72,08,022,,1*7A
$GAGSV,3,1,09,26,40,081,20,01,03,194,,07,33,068,,08,04,023,,7*79
$GAGSV,3,2,09,12,29,279,,24,28,298,,25,00,000,,31,30,241,,7*71
$GAGSV,3,3,09,33,77,341,,7*4C
$GBGSV,3,1,12,20,59,125,18,30,26,115,18,02,06,104,,05,21,125,,1*7C
$GBGSV,3,2,12,06,15,080,,09,12,091,,13,10,063,,16,16,074,,1*79
$GBGSV,3,3,12,19,27,185,,24,06,327,,26,09,284,,29,83,098,,1*70
$GNGSA,A,3,08,10,27,32,,,,,,,,,2.0,1.8,1.0,1*36
$GNGSA,A,3,65,88,,,,,,,,,,,2.0,1.8,1.0,2*3B
$GNGSA,A,3,26,,,,,,,,,,,,2.0,1.8,1.0,3*3D
$GNVTG,,T,,M,,N,,K,A*3D
$GNRMC,135902.00,A,4813.966512,N,01442.828373,E,,,020622,,,A,V*35
$GNGGA,135902.00,4813.966512,N,01442.828373,E,1,07,1.8,318.2,M,44.6,M,,*79
$GPGSV,3,1,10,08,67,286,14,10,58,063,10,27,64,153,13,32,26,127,17,1*6A
$GPGSV,3,2,10,01,14,270,,14,04,331,,16,12,191,,21,45,279,,1*66
$GPGSV,3,3,10,22,11,144,,23,26,049,,1*6C
$GLGSV,3,1,10,65,47,054,13,88,42,090,15,66,44,151,,82,21,300,,1*7C
$GLGSV,3,2,10,73,04,354,,79,14,250,,87,01,105,,81,65,343,,1*72
$GLGSV,3,3,10,67,02,184,,72,08,022,,1*7A
$GAGSV,3,1,09,26,40,081,20,01,03,194,,07,33,068,,08,04,023,,7*79
$GAGSV,3,2,09,12,29,279,,24,28,298,,25,00,000,,31,30,241,,7*71
$GAGSV,3,3,09,33,77,341,,7*4C
$GBGSV,3,1,12,20,59,125,16,30,26,115,16,02,06,104,,05,21,125,,1*7C
$GBGSV,3,2,12,06,15,080,,09,12,091,,13,10,063,,16,16,074,,1*79
$GBGSV,3,3,12,19,27,185,,24,06,327,,26,09,284,,29,83,098,,1*70
$GNGSA,A,3,08,10,27,32,,,,,,,,,2.0,1.8,1.0,1*36
$GNGSA,A,3,65,88,,,,,,,,,,,2.0,1.8,1.0,2*3B
$GNGSA,A,3,26,,,,,,,,,,,,2.0,1.8,1.0,3*3D
$GNVTG,,T,,M,,N,,K,A*3D
$GNRMC,135903.00,A,4813.966951,N,01442.827857,E,,,020622,,,A,V*3D
$GNGGA,135903.00,4813.966951,N,01442.827857,E,1,07,1.8,320.5,M,44.6,M,,*7D
$GPGSV,3,1,10,08,67,286,14,10,58,063,10,27,64,153,13,32,26,127,17,1*6A
$GPGSV,3,2,10,01,14,270,,14,04,331,,16,12,191,,21,45,279,,1*66
$GPGSV,3,3,10,22,11,144,,23,26,049,,1*6C
$GLGSV,3,1,10,65,47,054,17,88,42,090,18,66,44,151,,82,21,300,,1*75
$GLGSV,3,2,10,73,04,354,,79,14,250,,87,01,105,,81,65,343,,1*72
$GLGSV,3,3,10,67,02,184,,72,08,022,,1*7A
$GAGSV,3,1,09,26,40,081,19,01,03,194,,07,33,068,,08,04,023,,7*73
$GAGSV,3,2,09,12,29,279,,24,28,298,,25,00,000,,31,30,241,,7*71
$GAGSV,3,3,09,33,77,341,,7*4C
$GBGSV,3,1,12,20,59,125,16,30,26,115,17,02,06,104,,05,21,125,,1*7D
$GBGSV,3,2,12,06,15,080,,09,12,091,,13,10,063,,16,16,074,,1*79
$GBGSV,3,3,12,19,27,185,,24,06,327,,26,09,284,,29,83,098,,1*70
$GNGSA,A,3,08,10,27,32,,,,,,,,,2.0,1.8,1.0,1*36
$GNGSA,A,3,65,88,,,,,,,,,,,2.0,1.8,1.0,2*3B
$GNGSA,A,3,26,,,,,,,,,,,,2.0,1.8,1.0,3*3D
$GNVTG,,T,,M,,N,,K,A*3D
$GNRMC,135904.00,A,4813.967081,N,01442.827712,E,,,020622,,,A,V*31
$GNGGA,135904.00,4813.967081,N,01442.827712,E,1,07,1.8,320.1,M,44.6,M,,*75
$GPGSV,3,1,10,08,67,286,14,10,58,063,10,27,64,153,13,32,26,127,18,1*65
$GPGSV,3,2,10,01,14,270,,14,04,331,,16,12,191,,21,45,279,,1*66
$GPGSV,3,3,10,22,11,144,,23,26,049,,1*6C
$GLGSV,3,1,10,65,47,054,17,88,42,090,18,66,44,151,,82,21,300,,1*75
$GLGSV,3,2,10,73,04,354,,79,14,250,,87,01,105,,81,65,343,,1*72
$GLGSV,3,3,10,67,02,184,,72,08,022,,1*7A
$GAGSV,3,1,09,26,40,081,21,01,03,194,,07,33,068,,08,04,023,,7*78
$GAGSV,3,2,09,12,29,279,,24,28,298,,25,00,000,,31,30,241,,7*71
$GAGSV,3,3,09,33,77,341,,7*4C
$GBGSV,3,1,12,20,59,125,18,30,26,115,16,02,06,104,,05,21,125,,1*72
$GBGSV,3,2,12,06,15,080,,09,12,091,,13,10,063,,16,16,074,,1*79
$GBGSV,3,3,12,19,27,185,,24,06,327,,26,09,284,,29,83,098,,1*70
$GNGSA,A,3,08,10,27,32,,,,,,,,,2.0,1.8,1.0,1*36
$GNGSA,A,3,65,88,,,,,,,,,,,2.0,1.8,1.0,2*3B
$GNGSA,A,3,26,,,,,,,,,,,,2.0,1.8,1.0,3*3D
$GNVTG,,T,,M,,N,,K,A*3D
$GNRMC,135905.00,A,4813.967560,N,01442.827839,E,,,020622,,,A,V*3C
$GNGGA,135905.00,4813.967560,N,01442.827839,E,1,07,1.8,323.8,M,44.6,M,,*72
$GPGSV,3,1,10,08,67,286,16,10,58,063,10,27,64,153,13,32,26,127,20,1*6C
$GPGSV,3,2,10,01,14,270,,14,04,331,,16,12,191,,21,45,279,,1*66
$GPGSV,3,3,10,22,11,144,,23,26,049,,1*6C
$GLGSV,3,1,10,65,47,054,17,88,42,090,17,66,44,151,,82,21,300,,1*7A
$GLGSV,3,2,10,73,04,354,,79,14,250,,87,01,105,,81,65,343,,1*72
$GLGSV,3,3,10,67,02,184,,72,08,022,,1*7A
$GAGSV,3,1,09,26,40,081,21,01,03,194,,07,33,068,,08,04,023,,7*78
$GAGSV,3,2,09,12,29,279,,24,28,298,,25,00,000,,31,30,241,,7*71
$GAGSV,3,3,09,33,77,341,,7*4C
$GBGSV,3,1,12,20,59,125,18,30,26,115,18,02,06,104,,05,21,125,,1*7C
$GBGSV,3,2,12,06,15,080,,09,12,091,,13,10,063,,16,16,074,,1*79
$GBGSV,3,3,12,19,27,185,,24,06,327,,26,09,284,,29,83,098,,1*70
$GNGSA,A,3,08,10,27,32,,,,,,,,,2.0,1.8,1.0,1*36
$GNGSA,A,3,65,88,,,,,,,,,,,2.0,1.8,1.0,2*3B
$GNGSA,A,3,26,,,,,,,,,,,,2.0,1.8,1.0,3*3D
$GNVTG,6.1,T,4.8,M,1.5,N,2.8,K,A*38
$GNRMC,135906.00,A,4813.968963,N,01442.825417,E,1.5,6.1,020622,1.3,E,A,V*57
$GNGGA,135906.00,4813.968963,N,01442.825417,E,1,07,1.8,330.3,M,44.6,M,,*7A
$GPGSV,3,1,10,08,67,286,16,10,58,063,10,27,64,153,13,32,26,127,20,1*6C
$GPGSV,3,2,10,01,14,270,,14,04,331,,16,12,191,,21,45,279,,1*66
$GPGSV,3,3,10,22,11,144,,23,26,049,,1*6C
$GLGSV,3,1,10,65,47,054,17,88,42,090,17,66,44,151,,82,21,300,,1*7A
$GLGSV,3,2,10,73,04,354,,79,14,250,,87,01,105,,81,65,343,,1*72
$GLGSV,3,3,10,67,02,184,,72,08,022,,1*7A
$GAGSV,3,1,09,26,40,081,20,01,03,194,,07,33,068,,08,04,023,,7*79
$GAGSV,3,2,09,12,29,279,,24,28,298,,25,00,000,,31,30,241,,7*71
$GAGSV,3,3,09,33,77,341,,7*4C
$GBGSV,3,1,12,20,59,125,18,30,26,115,18,02,06,104,,05,21,125,,1*7C
$GBGSV,3,2,12,06,15,080,,09,12,091,,13,10,063,,16,16,074,,1*79
$GBGSV,3,3,12,19,27,185,,24,06,327,,26,09,284,,29,83,098,,1*70
$GNGSA,A,3,08,10,27,32,,,,,,,,,2.0,1.8,1.0,1*36
$GNGSA,A,3,65,88,,,,,,,,,,,2.0,1.8,1.0,2*3B
$GNGSA,A,3,26,,,,,,,,,,,,2.0,1.8,1.0,3*3D
$GNVTG,8.4,T,7.1,M,0.9,N,1.7,K,A*38
$GNRMC,135907.00,A,4813.969936,N,01442.823854,E,0.9,8.4,020622,1.3,E,A,V*5C
$GNGGA,135907.00,4813.969936,N,01442.823854,E,1,07,1.8,330.2,M,44.6,M,,*76
$GPGSV,3,1,10,08,67,286,16,10,58,063,10,27,64,153,17,32,26,127,18,1*63
$GPGSV,3,2,10,01,14,270,,14,04,331,,16,12,191,,21,45,279,,1*66
$GPGSV,3,3,10,22,11,144,,23,26,049,,1*6C
$GLGSV,3,1,10,65,47,054,17,88,42,090,17,66,44,151,,82,21,300,,1*7A
$GLGSV,3,2,10,73,04,354,,79,14,250,,87,01,105,,81,65,343,,1*72
$GLGSV,3,3,10,67,02,184,,72,08,022,,1*7A
$GAGSV,3,1,09,26,40,081,21,01,03,194,,07,33,068,,08,04,023,,7*78
$GAGSV,3,2,09,12,29,279,,24,28,298,,25,00,000,,31,30,241,,7*71
$GAGSV,3,3,09,33,77,341,,7*4C
$GBGSV,3,1,12,20,59,125,17,30,26,115,15,02,06,104,,05,21,125,,1*7E
$GBGSV,3,2,12,06,15,080,,09,12,091,,13,10,063,,16,16,074,,1*79
$GBGSV,3,3,12,19,27,185,,24,06,327,,26,09,284,,29,83,098,,1*70
$GNGSA,A,3,08,27,32,,,,,,,,,,2.2,2.0,1.0,1*3E
$GNGSA,A,3,65,88,,,,,,,,,,,2.2,2.0,1.0,2*32
$GNGSA,A,3,26,,,,,,,,,,,,2.2,2.0,1.0,3*34
$GNVTG,8.7,T,7.4,M,1.9,N,3.5,K,A*3F
$GNRMC,135908.00,A,4813.971966,N,01442.824002,E,1.9,8.7,020622,1.3,E,A,V*51
$GNGGA,135908.00,4813.971966,N,01442.824002,E,1,06,2.0,325.4,M,44.6,M,,*71
$GPGSV,3,1,10,08,67,286,16,10,58,063,10,27,64,153,20,32,26,127,21,1*6D
$GPGSV,3,2,10,01,14,270,,14,04,331,,16,12,191,,21,45,279,,1*66
$GPGSV,3,3,10,22,11,144,,23,26,049,,1*6C
$GLGSV,3,1,10,65,47,054,17,88,42,090,17,66,44,151,,82,21,300,,1*7A
$GLGSV,3,2,10,73,04,354,,79,14,250,,87,01,105,,81,65,343,,1*72
$GLGSV,3,3,10,67,02,184,,72,08,022,,1*7A
$GAGSV,3,1,09,26,40,081,23,01,03,194,,07,33,068,,08,04,023,,7*7A
$GAGSV,3,2,09,12,29,279,,24,28,298,,25,00,000,,31,30,241,,7*71
$GAGSV,3,3,09,33,77,341,,7*4C
$GBGSV,3,1,12,20,59,125,19,30,26,115,19,02,06,104,,05,21,125,,1*7C
$GBGSV,3,2,12,06,15,080,,09,12,091,,13,10,063,,16,16,074,,1*79
$GBGSV,3,3,12,19,27,185,,24,06,327,,26,09,284,,29,83,098,,1*70
$GNGSA,A,3,08,27,32,,,,,,,,,,2.2,2.0,1.0,1*3E
$GNGSA,A,3,65,88,,,,,,,,,,,2.2,2.0,1.0,2*32
$GNGSA,A,3,26,,,,,,,,,,,,2.2,2.0,1.0,3*34
$GNVTG,8.5,T,7.2,M,3.4,N,6.3,K,A*37
$GNRMC,135909.00,A,4813.973390,N,01442.823824,E,3.4,8.5,020622,1.3,E,A,V*57
$GNGGA,135909.00,4813.973390,N,01442.823824,E,1,06,2.0,331.3,M,44.6,M,,*78
$GPGSV,3,1,10,08,67,286,14,10,58,063,10,27,64,153,19,32,26,127,19,1*6E
$GPGSV,3,2,10,01,14,270,,14,04,331,,16,12,191,,21,45,279,,1*66
$GPGSV,3,3,10,22,11,144,,23,26,049,,1*6C
$GLGSV,3,1,10,65,47,054,14,88,42,090,17,66,44,151,,82,21,300,,1*79
$GLGSV,3,2,10,73,04,354,,79,14,250,,87,01,105,,81,65,343,,1*72
$GLGSV,3,3,10,67,02,184,,72,08,022,,1*7A
$GAGSV,3,1,09,26,40,081,18,01,03,194,,07,33,068,,08,04,023,,7*72
$GAGSV,3,2,09,12,29,279,,24,28,298,,25,00,000,,31,30,241,,7*71
$GAGSV,3,3,09,33,77,341,,7*4C
$GBGSV,3,1,12,20,59,125,20,30,26,115,18,02,06,104,,05,21,125,,1*77
$GBGSV,3,2,12,06,15,080,,09,12,091,,13,10,063,,16,16,074,,1*79
$GBGSV,3,3,12,19,27,185,,24,06,327,,26,09,284,,29,83,098,,1*70
$GNGSA,A,3,08,27,32,,,,,,,,,,2.2,2.0,1.0,1*3E
$GNGSA,A,3,65,88,,,,,,,,,,,2.2,2.0,1.0,2*32
$GNGSA,A,3,26,,,,,,,,,,,,2.2,2.0,1.0,3*34
$GNVTG,351.1,T,349.8,M,2.5,N,4.6,K,A*38
$GNRMC,135910.00,A,4813.974074,N,01442.825679,E,2.5,351.1,020622,1.3,E,A,V*5A
$GNGGA,135910.00,4813.974074,N,01442.825679,E,1,06,2.0,331.4,M,44.6,M,,*79
$GPGSV,3,1,10,08,67,286,14,10,58,063,10,27,64,153,19,32,26,127,19,1*6E
$GPGSV,3,2,10,01,14,270,,14,04,331,,16,12,191,,21,45,279,,1*66
$GPGSV,3,3,10,22,11,144,,23,26,049,,1*6C
$GLGSV,3,1,10,65,47,054,14,88,42,090,14,66,44,151,,82,21,300,,1*7A
$GLGSV,3,2,10,73,04,354,,79,14,250,,87,01,105,,81,65,343,,1*72
$GLGSV,3,3,10,67,02,184,,72,08,022,,1*7A
$GAGSV,3,1,09,26,40,081,18,01,03,194,,07,33,068,,08,04,023,,7*72
$GAGSV,3,2,09,12,29,279,,24,28,298,,25,00,000,,31,30,241,,7*71
$GAGSV,3,3,09,33,77,341,,7*4C
$GBGSV,3,1,12,20,59,125,20,30,26,115,18,02,06,104,,05,21,125,,1*77
$GBGSV,3,2,12,06,15,080,,09,12,091,,13,10,063,,16,16,074,,1*79
$GBGSV,3,3,12,19,27,185,,24,06,327,,26,09,284,,29,83,098,,1*70
$GNGSA,A,3,08,27,32,,,,,,,,,,2.2,2.0,1.0,1*3E
$GNGSA,A,3,65,88,,,,,,,,,,,2.2,2.0,1.0,2*32
$GNGSA,A,3,26,,,,,,,,,,,,2.2,2.0,1.0,3*34
$GNVTG,13.4,T,12.1,M,2.6,N,4.9,K,A*30
$GNRMC,135911.00,A,4813.974751,N,01442.827300,E,2.6,13.4,020622,1.3,E,A,V*61
$GNGGA,135911.00,4813.974751,N,01442.827300,E,1,06,2.0,331.8,M,44.6,M,,*7D
$GPGSV,3,1,10,08,67,286,14,10,58,063,10,27,64,153,19,32,26,127,19,1*6E
$GPGSV,3,2,10,01,14,270,,14,04,331,,16,12,191,,21,45,279,,1*66
$GPGSV,3,3,10,22,11,144,,23,26,049,,1*6C
$GLGSV,3,1,10,65,47,054,14,88,42,090,14,66,44,151,,82,21,300,,1*7A
$GLGSV,3,2,10,73,04,354,,79,14,250,,87,01,105,,81,65,343,,1*72
$GLGSV,3,3,10,67,02,184,,72,08,022,,1*7A
$GAGSV,3,1,09,26,40,081,18,01,03,194,,07,33,068,,08,04,023,,7*72
$GAGSV,3,2,09,12,29,279,,24,28,298,,25,00,000,,31,30,241,,7*71
$GAGSV,3,3,09,33,77,341,,7*4C
$GBGSV,3,1,12,20,59,125,20,30,26,115,18,02,06,104,,05,21,125,,1*77
$GBGSV,3,2,12,06,15,080,,09,12,091,,13,10,063,,16,16,074,,1*79
$GBGSV,3,3,12,19,27,185,,24,06,327,,26,09,284,,29,83,098,,1*70
$GNGSA,A,3,08,27,32,,,,,,,,,,2.2,2.0,1.0,1*3E
$GNGSA,A,3,65,88,,,,,,,,,,,2.2,2.0,1.0,2*32
$GNGSA,A,3,26,,,,,,,,,,,,2.2,2.0,1.0,3*34
$GNVTG,,T,,M,,N,,K,A*3D
$GNRMC,135912.00,A,4813.975417,N,01442.828613,E,,,020622,,,A,V*31
$GNGGA,135912.00,4813.975417,N,01442.828613,E,1,06,2.0,331.7,M,44.6,M,,*79
$GPGSV,3,1,10,08,67,286,14,10,58,063,10,27,64,153,19,32,26,127,19,1*6E
$GPGSV,3,2,10,01,14,270,,14,04,331,,16,12,191,,21,45,279,,1*66
$GPGSV,3,3,10,22,11,144,,23,26,049,,1*6C
$GLGSV,3,1,10,65,47,054,14,88,42,090,14,66,44,151,,82,21,300,,1*7A
$GLGSV,3,2,10,73,04,354,,79,14,250,,87,01,105,,81,65,343,,1*72
$GLGSV,3,3,10,67,02,184,,72,08,022,,1*7A
$GAGSV,3,1,09,26,40,081,18,01,03,194,,07,33,068,,08,04,023,,7*72
$GAGSV,3,2,09,12,29,279,,24,28,298,,25,00,000,,31,30,241,,7*71
$GAGSV,3,3,09,33,77,341,,7*4C
$GBGSV,3,1,12,20,59,125,20,30,26,115,18,02,06,104,,05,21,125,,1*77
$GBGSV,3,2,12,06,15,080,,09,12,091,,13,10,063,,16,16,074,,1*79
$GBGSV,3,3,12,19,27,185,,24,06,327,,26,09,284,,29,83,098,,1*70
$GNGSA,A,3,08,27,32,,,,,,,,,,2.2,2.0,1.0,1*3E
$GNGSA,A,3,65,88,,,,,,,,,,,2.2,2.0,1.0,2*32
$GNGSA,A,3,26,,,,,,,,,,,,2.2,2.0,1.0,3*34
$GNVTG,,T,,M,,N,,K,A*3D
$GNRMC,135913.00,A,4813.976076,N,01442.829641,E,,,020622,,,A,V*36
$GNGGA,135913.00,4813.976076,N,01442.829641,E,1,06,2.0,331.7,M,44.6,M,,*7E
$GPGSV,3,1,10,08,67,286,14,10,58,063,10,27,64,153,19,32,26,127,19,1*6E
$GPGSV,3,2,10,01,14,270,,14,04,331,,16,12,191,,21,45,279,,1*66
$GPGSV,3,3,10,22,11,144,,23,26,049,,1*6C
$GLGSV,3,1,10,65,47,054,14,88,42,090,14,66,44,151,,82,21,300,,1*7A
$GLGSV,3,2,10,73,04,354,,79,14,250,,87,01,105,,81,65,343,,1*72
$GLGSV,3,3,10,67,02,184,,72,08,022,,1*7A
$GAGSV,3,1,09,26,40,081,18,01,03,194,,07,33,068,,08,04,023,,7*72
$GAGSV,3,2,09,12,29,279,,24,28,298,,25,00,000,,31,30,241,,7*71
$GAGSV,3,3,09,33,77,341,,7*4C
$GBGSV,3,1,12,20,59,125,20,30,26,115,18,02,06,104,,05,21,125,,1*77
$GBGSV,3,2,12,06,15,080,,09,12,091,,13,10,063,,16,16,074,,1*79
$GBGSV,3,3,12,19,27,185,,24,06,327,,26,09,284,,29,83,098,,1*70
$GPGSA,A,1,,,,,,,,,,,,,,,,*32
$GPVTG,,T,,M,,N,,K,N*2C
$GPRMC,,V,,,,,,,,,,N,V*29
$GPGGA,,,,,,0,,,,,,,,*66
$GPGSV,3,1,10,08,67,286,14,10,58,063,10,27,64,153,19,32,26,127,19,1*6E
$GPGSV,3,2,10,01,14,270,,14,04,331,,16,12,191,,21,45,279,,1*66
$GPGSV,3,3,10,22,11,144,,23,26,049,,1*6C
$GLGSV,3,1,10,65,47,054,14,88,42,090,15,66,44,151,,82,21,300,,1*7B
$GLGSV,3,2,10,73,04,354,,79,14,250,,87,01,105,,81,65,343,,1*72
$GLGSV,3,3,10,67,02,184,,72,08,022,,1*7A
$GAGSV,3,1,09,26,40,081,18,01,03,194,,07,33,068,,08,04,023,,7*72
$GAGSV,3,2,09,12,29,279,,24,28,298,,25,00,000,,31,30,241,,7*71
$GAGSV,3,3,09,33,77,341,,7*4C
$GBGSV,3,1,12,20,59,125,20,30,26,115,18,02,06,104,,05,21,125,,1*77
$GBGSV,3,2,12,06,15,080,,09,12,091,,13,10,063,,16,16,074,,1*79
$GBGSV,3,3,12,19,27,185,,24,06,327,,26,09,284,,29,83,098,,1*70
$GPGSA,A,1,,,,,,,,,,,,,,,,*32
$GPVTG,,T,,M,,N,,K,N*2C
$GPRMC,,V,,,,,,,,,,N,V*29
$GPGGA,,,,,,0,,,,,,,,*66
$GPGSV,3,1,10,08,67,286,14,10,58,063,16,27,64,153,14,32,26,127,19,1*65
$GPGSV,3,2,10,01,14,270,,14,04,331,,16,12,191,,21,45,279,,1*66
$GPGSV,3,3,10,22,11,144,,23,26,049,,1*6C
$GLGSV,3,1,10,65,47,054,14,88,42,090,15,66,44,151,,82,21,300,,1*7B
$GLGSV,3,2,10,73,04,354,,79,14,250,,87,01,105,,81,65,343,,1*72
$GLGSV,3,3,10,67,02,184,,72,08,022,,1*7A
$GAGSV,3,1,09,26,40,081,18,01,03,194,,07,33,068,,08,04,023,,7*72
$GAGSV,3,2,09,12,29,279,,24,28,298,,25,00,000,,31,30,241,,7*71
$GAGSV,3,3,09,33,77,341,,7*4C
$GBGSV,3,1,12,20,59,125,20,30,26,115,18,02,06,104,,05,21,125,,1*77
$GBGSV,3,2,12,06,15,080,,09,12,091,,13,10,063,,16,16,074,,1*79
$GBGSV,3,3,12,19,27,185,,24,06,327,,26,09,284,,29,83,098,,1*70
$GPGSA,A,1,,,,,,,,,,,,,,,,*32
$GPVTG,,T,,M,,N,,K,N*2C
$GPRMC,,V,,,,,,,,,,N,V*29
$GPGGA,,,,,,0,,,,,,,,*66
$GPGSV,3,1,10,08,67,286,14,10,58,063,16,27,64,153,14,32,26,127,19,1*65
$GPGSV,3,2,10,01,14,270,,14,04,331,,16,12,191,,21,45,279,,1*66
$GPGSV,3,3,10,22,11,144,,23,26,049,,1*6C
$GLGSV,3,1,10,65,47,054,14,88,42,090,15,66,44,151,,82,21,300,,1*7B
$GLGSV,3,2,10,73,04,354,,79,14,250,,87,01,105,,81,65,343,,1*72
$GLGSV,3,3,10,67,02,184,,72,08,022,,1*7A
$GAGSV,3,1,09,26,40,081,18,01,03,194,,07,33,068,,08,04,023,,7*72
$GAGSV,3,2,09,12,29,279,,24,28,298,,25,00,000,,31,30,241,,7*71
$GAGSV,3,3,09,33,77,341,,7*4C
$GBGSV,3,1,12,20,59,125,20,30,26,115,18,02,06,104,,05,21,125,,1*77
$GBGSV,3,2,12,06,15,080,,09,12,091,,13,10,063,,16,16,074,,1*79
$GBGSV,3,3,12,19,27,185,,24,06,327,,26,09,284,,29,83,098,,1*70
$GPGSA,A,1,,,,,,,,,,,,,,,,*32
$GPVTG,,T,,M,,N,,K,N*2C
$GPRMC,,V,,,,,,,,,,N,V*29
$GPGGA,,,,,,0,,,,,,,,*66
$GPGSV,3,1,10,08,67,286,12,10,58,063,17,27,64,153,16,32,26,127,19,1*60
$GPGSV,3,2,10,01,14,270,,14,04,331,,16,12,191,,21,45,279,,1*66
$GPGSV,3,3,10,22,11,144,,23,26,049,,1*6C
$GLGSV,3,1,10,65,47,054,14,88,42,090,15,66,44,151,,82,21,300,,1*7B
$GLGSV,3,2,10,73,04,354,,79,14,250,,87,01,105,,81,65,343,,1*72
$GLGSV,3,3,10,67,02,184,,72,08,022,,1*7A
$GAGSV,3,1,09,26,40,081,18,01,03,194,,07,33,068,,08,04,023,,7*72
$GAGSV,3,2,09,12,29,279,,24,28,298,,25,00,000,,31,30,241,,7*71
$GAGSV,3,3,09,33,77,341,,7*4C
$GBGSV,3,1,12,20,59,125,20,30,26,115,18,02,06,104,,05,21,125,,1*77
$GBGSV,3,2,12,06,15,080,,09,12,091,,13,10,063,,16,16,074,,1*79
$GBGSV,3,3,12,19,27,185,,24,06,327,,26,09,284,,29,83,098,,1*70
$GPGSA,A,1,,,,,,,,,,,,,,,,*32
$GPVTG,,T,,M,,N,,K,N*2C
$GPRMC,,V,,,,,,,,,,N,V*29
$GPGGA,,,,,,0,,,,,,,,*66
$GPGSV,3,1,10,08,67,286,12,10,58,063,17,27,64,153,16,32,26,127,12,1*6B
$GPGSV,3,2,10,01,14,270,,14,04,331,,16,12,191,,21,45,279,,1*66
$GPGSV,3,3,10,22,11,144,,23,26,049,,1*6C
$GLGSV,3,1,10,65,47,054,14,88,42,090,15,66,44,151,,82,21,300,,1*7B
$GLGSV,3,2,10,73,04,354,,79,14,250,,87,01,105,,81,65,343,,1*72
$GLGSV,3,3,10,67,02,184,,72,08,022,,1*7A
$GAGSV,3,1,09,26,40,081,18,01,03,194,,07,33,068,,08,04,023,,7*72
$GAGSV,3,2,09,12,29,279,,24,28,298,,25,00,000,,31,30,241,,7*71
$GAGSV,3,3,09,33,77,341,,7*4C
$GBGSV,3,1,12,20,59,125,20,30,26,115,18,02,06,104,,05,21,125,,1*77
$GBGSV,3,2,12,06,15,080,,09,12,091,,13,10,063,,16,16,074,,1*79
$GBGSV,3,3,12,19,27,185,,24,06,327,,26,09,284,,29,83,098,,1*70
$GPGSA,A,1,,,,,,,,,,,,,,,,*32
$GPVTG,,T,,M,,N,,K,N*2C
$GPRMC,,V,,,,,,,,,,N,V*29
$GPGGA,,,,,,0,,,,,,,,*66
$GPGSV,3,1,10,08,67,286,12,10,58,063,16,27,64,153,16,32,26,127,12,1*6A
$GPGSV,3,2,10,01,14,270,,14,04,331,,16,12,191,,21,45,279,,1*66
$GPGSV,3,3,10,22,11,144,,23,26,049,,1*6C
$GLGSV,3,1,10,65,47,054,14,88,42,090,14,66,44,151,,82,21,300,,1*7A
$GLGSV,3,2,10,73,04,354,,79,14,250,,87,01,105,,81,65,343,,1*72
$GLGSV,3,3,10,67,02,184,,72,08,022,,1*7A
$GAGSV,3,1,09,26,40,081,18,01,03,194,,07,33,068,,08,04,023,,7*72
$GAGSV,3,2,09,12,29,279,,24,28,298,,25,00,000,,31,30,241,,7*71
$GAGSV,3,3,09,33,77,341,,7*4C
$GBGSV,3,1,12,20,59,125,20,30,26,115,18,02,06,104,,05,21,125,,1*77
$GBGSV,3,2,12,06,15,080,,09,12,091,,13,10,063,,16,16,074,,1*79
$GBGSV,3,3,12,19,27,185,,24,06,327,,26,09,284,,29,83,098,,1*70
$GPGSA,A,1,,,,,,,,,,,,,,,,*32
$GPVTG,,T,,M,,N,,K,N*2C
$GPRMC,,V,,,,,,,,,,N,V*29
$GPGGA,,,,,,0,,,,,,,,*66
$GPGSV,3,1,10,08,67,286,12,10,58,063,18,27,64,153,17,32,26,127,12,1*65
$GPGSV,3,2,10,01,14,270,,14,04,331,,16,12,191,,21,45,279,,1*66
$GPGSV,3,3,10,22,11,144,,23,26,049,,1*6C
$GLGSV,3,1,10,65,47,054,14,88,42,090,14,66,44,151,,82,21,300,,1*7A
$GLGSV,3,2,10,73,04,354,,79,14,250,,87,01,105,,81,65,343,,1*72
$GLGSV,3,3,10,67,02,184,,72,08,022,,1*7A
$GAGSV,3,1,09,26,40,081,18,01,03,194,,07,33,068,,08,04,023,,7*72
$GAGSV,3,2,09,12,29,279,,24,28,298,,25,00,000,,31,30,241,,7*71
$GAGSV,3,3,09,33,77,341,,7*4C
$GBGSV,3,1,12,20,59,125,20,30,26,115,18,02,06,104,,05,21,125,,1*77
$GBGSV,3,2,12,06,15,080,,09,12,091,,13,10,063,,16,16,074,,1*79
$GBGSV,3,3,12,19,27,185,,24,06,327,,26,09,284,,29,83,098,,1*70
$GPGSA,A,1,,,,,,,,,,,,,,,,*32
$GPVTG,,T,,M,,N,,K,N*2C
$GPRMC,,V,,,,,,,,,,N,V*29
$GPGGA,,,,,,0,,,,,,,,*66
$GPGSV,3,1,10,08,67,286,15,10,58,063,18,27,64,153,17,32,26,127,15,1*65
$GPGSV,3,2,10,01,14,270,,14,04,331,,16,12,191,,21,45,279,,1*66
$GPGSV,3,3,10,22,11,144,,23,26,049,,1*6C
$GLGSV,3,1,10,65,47,054,14,88,42,090,14,66,44,151,,82,21,300,,1*7A
$GLGSV,3,2,10,73,04,354,,79,14,250,,87,01,105,,81,65,343,,1*72
$GLGSV,3,3,10,67,02,184,,72,08,022,,1*7A
$GAGSV,3,1,09,26,40,081,14,01,03,194,,07,33,068,,08,04,023,,7*7E
$GAGSV,3,2,09,12,29,279,,24,28,298,,25,00,000,,31,30,241,,7*71
$GAGSV,3,3,09,33,77,341,,7*4C
$GBGSV,3,1,12,20,59,125,20,30,26,115,18,02,06,104,,05,21,125,,1*77
$GBGSV,3,2,12,06,15,080,,09,12,091,,13,10,063,,16,16,074,,1*79
$GBGSV,3,3,12,19,27,185,,24,06,327,,26,09,284,,29,83,098,,1*70
$GPGSA,A,1,,,,,,,,,,,,,,,,*32
$GPVTG,,T,,M,,N,,K,N*2C
$GPRMC,,V,,,,,,,,,,N,V*29
$GPGGA,,,,,,0,,,,,,,,*66
$GPGSV,3,1,10,08,67,286,15,10,58,063,18,27,64,153,17,32,26,127,19,1*69
$GPGSV,3,2,10,01,14,270,,14,04,331,,16,12,191,,21,45,279,,1*66
$GPGSV,3,3,10,22,11,144,,23,26,049,,1*6C
$GLGSV,3,1,10,65,47,054,14,88,42,090,14,66,44,151,,82,21,300,,1*7A
$GLGSV,3,2,10,73,04,354,,79,14,250,,87,01,105,,81,65,343,,1*72
$GLGSV,3,3,10,67,02,184,,72,08,022,,1*7A
$GAGSV,3,1,09,26,40,081,19,01,03,194,,07,33,068,,08,04,023,,7*73
$GAGSV,3,2,09,12,29,279,,24,28,298,,25,00,000,,31,30,241,,7*71
$GAGSV,3,3,09,33,77,341,,7*4C
$GBGSV,3,1,12,20,59,125,21,30,26,115,17,02,06,104,,05,21,125,,1*79
$GBGSV,3,2,12,06,15,080,,09,12,091,,13,10,063,,16,16,074,,1*79
$GBGSV,3,3,12,19,27,185,,24,06,327,,26,09,284,,29,83,098,,1*70
$GPGSA,A,1,,,,,,,,,,,,,,,,*32
$GPVTG,,T,,M,,N,,K,N*2C
$GPRMC,,V,,,,,,,,,,N,V*29
$GPGGA,,,,,,0,,,,,,,,*66
$GPGSV,3,1,10,08,67,286,15,10,58,063,18,27,64,153,19,32,26,127,19,1*67
$GPGSV,3,2,10,01,14,270,,14,04,331,,16,12,191,,21,45,279,,1*66
$GPGSV,3,3,10,22,11,144,,23,26,049,,1*6C
$GLGSV,3,1,10,65,47,054,17,88,42,090,14,66,44,151,,82,21,300,,1*79
$GLGSV,3,2,10,73,04,354,,79,14,250,,87,01,105,,81,65,343,,1*72
$GLGSV,3,3,10,67,02,184,,72,08,022,,1*7A
$GAGSV,3,1,09,26,40,081,21,01,03,194,,07,33,068,,08,04,023,,7*78
$GAGSV,3,2,09,12,29,279,,24,28,298,,25,00,000,,31,30,241,,7*71
$GAGSV,3,3,09,33,77,341,,7*4C
$GBGSV,3,1,12,20,59,125,22,30,26,115,16,02,06,104,,05,21,125,,1*7B
$GBGSV,3,2,12,06,15,080,,09,12,091,,13,10,063,,16,16,074,,1*79
$GBGSV,3,3,12,19,27,185,,24,06,327,,26,09,284,,29,83,098,,1*70
$GPGSA,A,1,,,,,,,,,,,,,,,,*32
$GPVTG,,T,,M,,N,,K,N*2C
$GPRMC,,V,,,,,,,,,,N,V*29
$GPGGA,,,,,,0,,,,,,,,*66
$GPGSV,3,1,10,08,67,286,15,10,58,063,18,27,64,153,18,32,26,127,20,1*6C
$GPGSV,3,2,10,01,14,270,,14,04,331,,16,12,191,,21,45,279,,1*66
$GPGSV,3,3,10,22,11,144,,23,26,049,,1*6C
$GLGSV,3,1,10,65,47,054,17,88,42,090,13,66,44,151,,82,21,300,,1*7E
$GLGSV,3,2,10,73,04,354,,79,14,250,,87,01,105,,81,65,343,,1*72
$GLGSV,3,3,10,67,02,184,,72,08,022,,1*7A
$GAGSV,3,1,09,26,40,081,20,01,03,194,,07,33,068,,08,04,023,,7*79
$GAGSV,3,2,09,12,29,279,,24,28,298,,25,00,000,,31,30,241,,7*71
$GAGSV,3,3,09,33,77,341,,7*4C
$GBGSV,3,1,12,20,59,125,21,30,26,115,17,02,06,104,,05,21,125,,1*79
$GBGSV,3,2,12,06,15,080,,09,12,091,,13,10,063,,16,16,074,,1*79
$GBGSV,3,3,12,19,27,185,,24,06,327,,26,09,284,,29,83,098,,1*70
$GPGSA,A,1,,,,,,,,,,,,,,,,*32
$GPVTG,,T,,M,,N,,K,N*2C
$GPRMC,,V,,,,,,,,,,N,V*29
$GPGGA,,,,,,0,,,,,,,,*66
$GPGSV,3,1,10,08,67,286,15,10,58,063,18,27,64,153,18,32,26,127,20,1*6C
$GPGSV,3,2,10,01,14,270,,14,04,331,,16,12,191,,21,45,279,,1*66
$GPGSV,3,3,10,22,11,144,,23,26,049,,1*6C
$GLGSV,3,1,10,65,47,054,17,88,42,090,13,66,44,151,,82,21,300,,1*7E
$GLGSV,3,2,10,73,04,354,,79,14,250,,87,01,105,,81,65,343,,1*72
$GLGSV,3,3,10,67,02,184,,72,08,022,,1*7A
$GAGSV,3,1,09,26,40,081,21,01,03,194,,07,33,068,,08,04,023,,7*78
$GAGSV,3,2,09,12,29,279,,24,28,298,,25,00,000,,31,30,241,,7*71
$GAGSV,3,3,09,33,77,341,,7*4C
$GBGSV,3,1,12,20,59,125,22,30,26,115,16,02,06,104,,05,21,125,,1*7B
$GBGSV,3,2,12,06,15,080,,09,12,091,,13,10,063,,16,16,074,,1*79
$GBGSV,3,3,12,19,27,185,,24,06,327,,26,09,284,,29,83,098,,1*70
$GNGSA,A,3,08,27,32,,,,,,,,,,2.2,2.0,1.0,1*3E
$GNGSA,A,3,65,88,,,,,,,,,,,2.2,2.0,1.0,2*32
$GNGSA,A,3,26,,,,,,,,,,,,2.2,2.0,1.0,3*34
$GNVTG,13.6,T,12.3,M,3.0,N,5.6,K,A*39
$GNRMC,135926.00,A,4813.964963,N,01442.827511,E,3.0,13.6,020622,1.3,E,A,V*68
$GNGGA,135926.00,4813.964963,N,01442.827511,E,1,06,2.0,356.7,M,44.6,M,,*7F
$GPGSV,3,1,10,08,67,286,15,10,58,063,18,27,64,153,18,32,26,127,19,1*66
$GPGSV,3,2,10,01,14,270,,14,04,331,,16,12,191,,21,45,279,,1*66
$GPGSV,3,3,10,22,11,144,,23,26,049,,1*6C
$GLGSV,3,1,10,65,47,054,17,88,42,090,13,66,44,151,,82,21,300,,1*7E
$GLGSV,3,2,10,73,04,354,,79,14,250,,87,01,105,,81,65,343,,1*72
$GLGSV,3,3,10,67,02,184,,72,08,022,,1*7A
$GAGSV,3,1,09,26,40,081,19,01,03,194,,07,33,068,,08,04,023,,7*73
$GAGSV,3,2,09,12,29,279,,24,28,298,,25,00,000,,31,30,241,,7*71
$GAGSV,3,3,09,33,77,341,,7*4C
$GBGSV,3,1,12,20,59,125,19,30,26,115,16,02,06,104,,05,21,125,,1*73
$GBGSV,3,2,12,06,15,080,,09,12,091,,13,10,063,,16,16,074,,1*79
$GBGSV,3,3,12,19,27,185,,24,06,327,,26,09,284,,29,83,098,,1*70
$GNGSA,A,3,08,27,32,,,,,,,,,,2.2,2.0,1.0,1*3E
$GNGSA,A,3,65,88,,,,,,,,,,,2.2,2.0,1.0,2*32
$GNGSA,A,3,26,,,,,,,,,,,,2.2,2.0,1.0,3*34
$GNVTG,12.5,T,11.2,M,2.7,N,4.9,K,A*31
$GNRMC,135927.00,A,4813.966194,N,01442.826819,E,2.7,12.5,020622,1.3,E,A,V*6B
